City_ID,City,Lat,Lng,Max Temp,Humidity,Cloudiness,Wind Speed,Country,Date
0,bredasdorp,-34.5322,20.0403,10.35,92,0,2.76,ZA,2023-08-08 01:48:25
1,bethel,41.3712,-73.414,24.47,86,100,3.6,US,2023-08-08 01:48:05
2,ravar,31.2656,56.8055,27.66,23,0,2.25,IR,2023-08-08 01:52:55
3,buka,40.8108,69.1986,27.12,34,65,2.48,UZ,2023-08-08 01:49:18
4,port-aux-francais,-49.35,70.2167,2.64,77,21,16.6,TF,2023-08-08 01:52:56
5,saham,24.1722,56.8886,34.01,67,3,3.89,OM,2023-08-08 01:52:57
6,nar'yan-mar,67.6713,53.087,8.91,81,86,3.95,RU,2023-08-08 01:49:06
7,edinburgh of the seven seas,-37.0676,-12.3116,14.37,79,68,18.23,SH,2023-08-08 01:52:58
8,panacan,9.2463,118.4082,29.98,67,0,2.52,PH,2023-08-08 01:52:58
9,selfoss,63.9331,-20.9971,10.58,89,97,2.15,IS,2023-08-08 01:52:59
10,timbuktu,16.7735,-3.0074,32.53,43,46,6.56,ML,2023-08-08 01:52:59
11,isafjordur,66.0755,-23.124,10.79,58,69,0.77,IS,2023-08-08 01:53:00
12,badger,64.8,-147.5333,22.85,57,100,2.06,US,2023-08-08 01:53:01
13,saudarkrokur,65.7461,-19.6394,8.02,84,33,1.48,IS,2023-08-08 01:53:01
14,iskateley,67.6803,53.1512,8.89,81,84,3.93,RU,2023-08-08 01:49:03
15,mount gambier,-37.8333,140.7667,12.86,60,0,2.3,AU,2023-08-08 01:53:02
16,grytviken,-54.2811,-36.5092,-7.11,81,15,4.45,GS,2023-08-08 01:53:03
17,tazacorte,28.629,-17.9293,21.54,84,0,3.09,ES,2023-08-08 01:53:03
18,blackmans bay,-43.0167,147.3167,13.18,65,8,0.13,AU,2023-08-08 01:53:04
19,pajan,-1.5667,-80.4167,23.41,88,78,1.86,EC,2023-08-08 01:53:04
20,shimoda,34.6667,138.95,30.06,72,100,4.63,JP,2023-08-08 01:53:05
21,tarakan,3.3,117.6333,28.72,79,40,3.6,ID,2023-08-08 01:53:06
22,iqaluit,63.7506,-68.5145,11.85,71,40,1.03,CA,2023-08-08 01:48:40
23,dudinka,69.4058,86.1778,19.79,55,100,3.34,RU,2023-08-08 01:53:07
24,st. john's,47.5649,-52.7093,14.82,91,75,9.26,CA,2023-08-08 01:52:35
25,codrington,-38.2667,141.9667,12.81,67,0,3.28,AU,2023-08-08 01:49:17
26,punta arenas,-53.15,-70.9167,2.0,70,100,3.72,CL,2023-08-08 01:50:07
27,lompoc,34.6391,-120.4579,26.55,90,100,2.57,US,2023-08-08 01:48:34
28,alice springs,-23.7,133.8833,19.75,37,3,6.17,AU,2023-08-08 01:53:10
29,illizi,26.4833,8.4667,33.89,18,5,4.03,DZ,2023-08-08 01:53:10
30,ushuaia,-54.8,-68.3,1.81,75,0,0.51,AR,2023-08-08 01:53:11
31,adamstown,-25.066,-130.1015,20.99,76,60,4.34,PN,2023-08-08 01:53:11
32,enewetak,11.3474,162.3373,26.81,84,100,3.7,MH,2023-08-08 01:48:26
33,bilibino,68.0546,166.4372,9.59,60,80,0.51,RU,2023-08-08 01:53:12
34,sanga-sanga,5.0725,119.7853,28.59,74,100,5.29,PH,2023-08-08 01:53:13
35,nambucca,-30.6333,152.9833,18.7,55,10,3.23,AU,2023-08-08 01:53:13
36,sampit,-2.5333,112.95,28.47,63,96,2.48,ID,2023-08-08 01:53:14
37,puerto natales,-51.7236,-72.4875,-0.36,87,100,0.78,CL,2023-08-08 01:48:35
38,hatillo,18.4863,-66.8254,27.51,93,91,6.3,PR,2023-08-08 01:53:15
39,egilsstadir,65.2653,-14.3948,2.95,87,0,1.03,IS,2023-08-08 01:53:15
40,udachny,66.4167,112.4,21.36,39,98,4.04,RU,2023-08-08 01:53:16
41,maumere,-8.6199,122.2111,27.4,57,2,3.45,ID,2023-08-08 01:53:16
42,waitangi,-43.9535,-176.5597,11.01,77,100,2.68,NZ,2023-08-08 01:53:17
43,nikki,9.9401,3.2108,20.86,98,77,1.86,BJ,2023-08-08 01:53:17
44,dyurtyuli,55.4911,54.8688,18.43,77,35,2.63,RU,2023-08-08 01:53:18
45,noshiro,40.2039,140.0242,33.46,54,100,2.25,JP,2023-08-08 01:53:18
46,barcelona,41.3888,2.159,24.19,81,75,2.57,ES,2023-08-08 01:53:19
47,olonkinbyen,70.9221,-8.7187,4.13,78,100,1.34,SJ,2023-08-08 01:48:44
48,port hedland,-20.3167,118.5667,28.03,21,6,6.69,AU,2023-08-08 01:53:20
49,avarua,-21.2078,-159.775,24.03,69,20,1.54,CK,2023-08-08 01:53:21
50,katima mulilo,-17.5,24.2667,13.92,59,5,1.9,NA,2023-08-08 01:53:21
51,albany,42.6001,-73.9662,22.98,91,100,3.58,US,2023-08-08 01:52:39
52,klyuchi,52.2667,79.1667,21.05,39,0,1.75,RU,2023-08-08 01:53:22
53,hermanus,-34.4187,19.2345,12.67,87,36,2.87,ZA,2023-08-08 01:53:22
54,acaponeta,22.4964,-105.3594,28.19,84,56,1.78,MX,2023-08-08 01:53:23
55,petropavlovsk-kamchatsky,53.0452,158.6483,21.33,40,20,2.0,RU,2023-08-08 01:53:24
56,batang,-6.4846,110.7083,29.08,61,8,1.94,ID,2023-08-08 01:53:24
57,whitehorse,60.7161,-135.0538,23.34,40,75,5.14,CA,2023-08-08 01:49:14
58,wailua homesteads,22.0669,-159.378,30.44,76,75,9.26,US,2023-08-08 01:53:25
59,santa vitoria,-18.8386,-50.1214,24.84,33,0,1.95,BR,2023-08-08 01:51:04
60,tura,25.5198,90.2201,23.88,97,100,1.08,IN,2023-08-08 01:48:51
61,scarborough,54.2797,-0.4044,12.66,87,10,1.34,GB,2023-08-08 01:49:44
62,margaret river,-33.95,115.0667,15.53,85,93,10.62,AU,2023-08-08 01:53:27
63,tshabong,-26.05,22.45,11.21,27,0,4.32,BW,2023-08-08 01:53:28
64,puerto ayora,-0.7393,-90.3518,24.19,90,100,2.68,EC,2023-08-08 01:53:28
65,sanchor,24.7553,71.7722,27.96,76,99,8.47,IN,2023-08-08 01:53:29
66,la'ie,21.6477,-157.9253,31.98,70,7,0.89,US,2023-08-08 01:48:40
67,la sarre,48.8002,-79.1996,12.69,91,100,2.45,CA,2023-08-08 01:53:30
68,longyearbyen,78.2186,15.6401,6.91,81,75,3.6,SJ,2023-08-08 01:48:42
69,vilyuchinsk,52.9306,158.4028,22.15,55,6,3.01,RU,2023-08-08 01:53:31
70,manakara,-22.1333,48.0167,17.28,96,58,1.51,MG,2023-08-08 01:53:31
71,souillac,-20.5167,57.5167,22.21,68,75,5.14,MU,2023-08-08 01:53:32
72,gadzhiyevo,69.2551,33.3362,12.98,75,57,5.16,RU,2023-08-08 01:53:32
73,namdrik,5.5994,168.1028,26.75,80,100,5.48,MH,2023-08-08 01:53:33
74,laguna,38.421,-121.4238,38.63,30,0,6.17,US,2023-08-08 01:53:33
75,stanley,54.868,-1.6985,10.95,89,0,4.63,GB,2023-08-08 01:53:34
76,polohy,47.4844,36.2536,19.03,71,0,0.15,UA,2023-08-08 01:53:34
77,binhe,32.6883,112.8275,29.3,65,90,3.59,CN,2023-08-08 01:53:35
78,acarau,-2.8856,-40.12,25.79,85,40,7.65,BR,2023-08-08 01:53:36
79,mejit,10.2753,170.8646,28.24,77,19,8.98,MH,2023-08-08 01:53:36
80,kupang,-10.1667,123.5833,29.32,51,40,7.72,ID,2023-08-08 01:53:37
81,kodiak,57.79,-152.4072,13.73,94,100,3.09,US,2023-08-08 01:53:37
82,utrik,11.2278,169.8474,28.39,75,47,9.07,MH,2023-08-08 01:53:38
83,weno,7.4515,151.8468,26.97,94,100,4.12,FM,2023-08-08 01:53:38
84,carbonear,47.7332,-53.2148,15.08,87,20,7.86,CA,2023-08-08 01:53:39
85,hammerfest,70.6634,23.6821,17.25,82,75,2.06,NO,2023-08-08 01:53:40
86,minas de marcona,-15.2119,-75.1103,13.1,83,27,4.08,PE,2023-08-08 01:53:40
87,aasiaat,68.7098,-52.8699,0.51,84,16,1.61,GL,2023-08-08 01:53:41
88,znamenka,52.4167,41.4311,19.77,57,29,3.94,RU,2023-08-08 01:53:41
89,uzgen,40.7699,73.3007,19.16,34,80,2.15,KG,2023-08-08 01:53:42
90,fort mcmurray,56.7268,-111.381,20.77,40,0,3.09,CA,2023-08-08 01:49:22
91,oyama,36.3,139.8,33.1,53,94,1.63,JP,2023-08-08 01:53:43
92,san patricio,28.017,-97.5169,31.41,72,0,6.8,US,2023-08-08 01:53:43
93,kailua-kona,19.6406,-155.9956,30.98,64,0,5.14,US,2023-08-08 01:53:43
94,ribeira grande,38.5167,-28.7,21.54,82,4,2.68,PT,2023-08-08 01:53:44
95,vadso,70.0744,29.7487,16.49,77,100,1.54,NO,2023-08-08 01:53:44
96,atafu village,-8.5421,-172.5159,28.33,70,7,5.93,TK,2023-08-08 01:53:45
97,as sulayyil,20.4607,45.5779,30.14,15,77,4.22,SA,2023-08-08 01:53:45
98,figuig (centre),32.1089,-1.2286,30.08,22,1,2.23,MA,2023-08-08 01:53:46
99,papao,-17.75,-149.55,28.82,77,63,5.25,PF,2023-08-08 01:53:46
100,muchkapskiy,51.8513,42.4717,19.91,54,25,3.8,RU,2023-08-08 01:53:47
101,lyantor,61.6195,72.1555,21.03,51,12,4.22,RU,2023-08-08 01:53:47
102,severo-yeniseyskiy,60.3725,93.0408,14.8,70,93,2.49,RU,2023-08-08 01:53:48
103,mikumi,-7.4041,36.9831,17.6,92,4,1.11,TZ,2023-08-08 01:53:48
104,kununurra,-15.7667,128.7333,27.99,30,8,5.14,AU,2023-08-08 01:53:49
105,ad dilam,23.9915,47.1627,32.23,15,1,1.53,SA,2023-08-08 01:53:49
106,puerto baquerizo moreno,-0.9,-89.6,23.7,75,56,5.56,EC,2023-08-08 01:53:50
107,northam,51.0333,-4.2167,14.25,97,100,4.11,GB,2023-08-08 01:53:50
108,kirensk,57.7853,108.1119,24.09,59,92,2.47,RU,2023-08-08 01:53:51
109,mount isa,-20.7333,139.5,25.87,29,96,5.66,AU,2023-08-08 01:53:51
110,vilyuysk,63.7553,121.6247,24.73,38,0,3.94,RU,2023-08-08 01:53:51
111,fort st. john,56.2499,-120.8529,20.94,60,75,6.69,CA,2023-08-08 01:53:52
112,tolanaro,-25.0319,46.9987,18.04,100,75,7.2,MG,2023-08-08 01:53:52
113,invercargill,-46.4,168.35,8.34,71,77,4.02,NZ,2023-08-08 01:47:52
114,happy valley-goose bay,53.3168,-60.3315,15.17,82,75,2.06,CA,2023-08-08 01:53:53
115,ust-nera,64.5667,143.2,14.25,32,95,1.97,RU,2023-08-08 01:53:54
116,margate,51.3813,1.3862,13.16,78,74,1.34,GB,2023-08-08 01:53:54
117,newman,37.3138,-121.0208,39.13,39,0,0.89,US,2023-08-08 01:53:55
118,ilulissat,69.2167,-51.1,9.01,53,20,1.03,GL,2023-08-08 01:53:55
119,hawaiian paradise park,19.5933,-154.9731,28.73,77,40,4.63,US,2023-08-08 01:53:55
120,page,36.9147,-111.4558,36.88,10,0,9.83,US,2023-08-08 01:53:56
121,lauro de freitas,-12.8944,-38.3272,26.01,78,75,4.12,BR,2023-08-08 01:53:57
122,tazovsky,67.4667,78.7,15.63,68,3,1.89,RU,2023-08-08 01:53:57
123,al ghayzah,16.2079,52.176,25.56,91,32,3.8,YE,2023-08-08 01:53:58
124,keflavik,64.0049,-22.5624,11.24,93,0,1.03,IS,2023-08-08 01:53:58
125,dryden,49.7833,-92.7503,17.16,94,100,1.03,CA,2023-08-08 01:52:59
126,abadeh,31.1608,52.6506,21.1,38,24,2.71,IR,2023-08-08 01:53:59
127,hagere selam,6.4833,38.5167,8.63,94,98,1.75,ET,2023-08-08 01:54:00
128,georgetown,5.4112,100.3354,29.96,86,20,2.06,MY,2023-08-08 01:51:27
129,liwale,-9.7667,37.9333,18.81,79,81,1.39,TZ,2023-08-08 01:54:01
130,griffith,41.5284,-87.4237,22.19,80,75,0.0,US,2023-08-08 01:54:01
131,villa regina,-39.1,-67.0667,10.55,20,99,7.98,AR,2023-08-08 01:54:01
132,wuyang,31.9925,116.2472,28.29,73,7,2.81,CN,2023-08-08 01:54:02
133,ca mau,9.1769,105.15,30.85,62,8,4.47,VN,2023-08-08 01:54:03
134,port mathurin,-19.6833,63.4167,22.23,68,23,10.52,MU,2023-08-08 01:54:03
135,karasburg,-28.0167,18.75,14.36,21,0,1.96,NA,2023-08-08 01:54:04
136,ndjole,-0.1783,10.7649,21.55,84,41,1.24,GA,2023-08-08 01:54:05
137,kavaratti,10.5669,72.642,27.74,76,100,8.57,IN,2023-08-08 01:54:05
138,rio de janeiro,-22.9028,-43.2075,24.98,69,0,3.09,BR,2023-08-08 01:49:39
139,little falls,40.869,-74.2082,23.58,89,75,6.69,US,2023-08-08 01:54:06
140,thompson,55.7435,-97.8558,16.09,72,75,3.6,CA,2023-08-08 01:54:07
141,yellowknife,62.456,-114.3525,18.29,45,40,4.63,CA,2023-08-08 01:54:07
142,luderitz,-26.6481,15.1594,15.58,64,0,6.53,NA,2023-08-08 01:54:08
143,gretna,29.9147,-90.054,33.89,63,40,2.68,US,2023-08-08 01:54:08
144,anadyr,64.75,177.4833,13.28,76,75,6.0,RU,2023-08-08 01:54:09
145,glenfield park,-35.1372,147.334,16.44,63,0,1.74,AU,2023-08-08 01:54:09
146,lhokseumawe,5.1801,97.1507,25.8,83,100,2.22,ID,2023-08-08 01:54:10
147,chibougamau,49.9168,-74.3659,18.79,72,100,1.54,CA,2023-08-08 01:54:10
148,brookings,44.3114,-96.7984,22.32,68,75,2.57,US,2023-08-08 01:54:11
149,qui nhon,13.7667,109.2333,31.8,57,86,5.04,VN,2023-08-08 01:54:11
150,bluefield,37.2698,-81.2223,21.15,86,75,4.12,US,2023-08-08 01:54:12
151,quellon,-43.1167,-73.6167,6.14,93,100,1.03,CL,2023-08-08 01:54:12
152,manokwari,-0.8667,134.0833,28.3,70,96,1.87,ID,2023-08-08 01:54:13
153,karratha,-20.7377,116.8463,25.97,33,0,6.18,AU,2023-08-08 01:54:13
154,remire-montjoly,4.9167,-52.2667,26.02,94,0,1.03,GF,2023-08-08 01:54:14
155,haiku-pauwela,20.9219,-156.3051,31.01,56,20,13.38,US,2023-08-08 01:54:14
156,yuzhno-kurilsk,44.0306,145.8556,15.01,98,100,4.74,RU,2023-08-08 01:54:15
157,igarka,67.4667,86.5833,18.37,59,9,3.04,RU,2023-08-08 01:54:15
158,praia,14.9215,-23.5087,26.3,73,40,6.69,CV,2023-08-08 01:50:21
159,monte caseros,-30.2536,-57.6363,10.46,68,5,4.97,AR,2023-08-08 01:49:33
160,lihue,21.9789,-159.3672,30.77,69,75,9.26,US,2023-08-08 01:54:17
161,zhangye,38.9342,100.4517,31.61,18,24,1.27,CN,2023-08-08 01:54:17
162,san ignacio,17.1561,-89.0714,26.08,100,0,0.0,BZ,2023-08-08 01:54:18
163,ciudad del carmen,18.6333,-91.8333,28.02,78,100,6.17,MX,2023-08-08 01:54:18
164,saipan,15.1355,145.701,30.39,100,75,3.09,MP,2023-08-08 01:54:19
165,carnarvon,-24.8667,113.6333,22.23,70,88,2.14,AU,2023-08-08 01:54:19
166,dakhla,23.6848,-15.958,19.98,90,0,4.88,EH,2023-08-08 01:54:20
167,mar del plata,-38.0023,-57.5575,6.64,70,75,1.54,AR,2023-08-08 01:53:02
168,al bayda,32.7627,21.7551,18.95,90,18,3.49,LY,2023-08-08 01:54:21
169,lata,40.1629,-8.3327,21.15,34,0,1.47,PT,2023-08-08 01:54:21
170,kingscliff,-28.2667,153.5667,22.07,56,40,5.66,AU,2023-08-08 01:54:22
171,nemuro,43.3236,145.575,15.03,99,100,5.37,JP,2023-08-08 01:54:23
172,snowflake,34.5134,-110.0785,29.62,36,33,3.38,US,2023-08-08 01:54:23
173,smyrna,33.884,-84.5144,22.25,92,75,2.57,US,2023-08-08 01:51:01
174,bayanhongor,46.7167,100.1167,19.79,37,26,3.2,MN,2023-08-08 01:54:24
175,zhanjiang,21.2815,110.3427,30.33,66,94,5.78,CN,2023-08-08 01:54:24
176,la ronge,55.1001,-105.2842,16.14,72,75,3.6,CA,2023-08-08 01:54:25
177,kapuskasing,49.4169,-82.4331,21.05,73,100,4.12,CA,2023-08-08 01:54:26
178,port-vila,-17.7338,168.3219,23.78,78,100,4.12,VU,2023-08-08 01:54:26
179,bathsheba,13.2167,-59.5167,27.34,94,20,2.57,BB,2023-08-08 01:54:27
180,myeik,12.4333,98.6,27.29,85,100,5.53,MM,2023-08-08 01:54:27
181,garissa,-0.4536,39.6401,22.1,85,53,6.12,KE,2023-08-08 01:54:27
182,tutoia,-2.7619,-42.2744,26.21,84,60,6.97,BR,2023-08-08 01:49:44
183,saint-pierre,-21.3393,55.4781,20.82,73,0,9.77,RE,2023-08-08 01:54:28
184,thanh hoa,19.8,105.7667,25.56,91,100,1.7,VN,2023-08-08 01:54:29
185,shahrak,34.1074,64.3052,12.81,56,0,2.04,AF,2023-08-08 01:54:29
186,pesqueria,25.7833,-100.05,37.88,40,0,10.41,MX,2023-08-08 01:54:30
187,aqsay,51.1678,52.995,21.06,63,0,2.8,KZ,2023-08-08 01:54:31
188,ola,59.5833,151.2833,16.75,50,74,3.31,RU,2023-08-08 01:54:31
189,monticello,45.3055,-93.7941,24.45,58,40,2.57,US,2023-08-08 01:52:29
190,plettenberg bay,-34.0527,23.3716,12.76,73,0,3.89,ZA,2023-08-08 01:54:32
191,khorixas,-20.3667,14.9667,17.22,28,0,3.25,NA,2023-08-08 01:54:33
192,airuk,7.2772,168.8203,26.56,86,100,7.75,MH,2023-08-08 01:54:33
193,kalmunai,7.4167,81.8167,27.71,69,100,3.22,LK,2023-08-08 01:54:34
194,zouerate,22.7187,-12.4521,27.33,35,0,5.89,MR,2023-08-08 01:54:35
195,manta,-0.95,-80.7333,26.88,78,40,7.6,EC,2023-08-08 01:54:22
196,chhatak,25.0333,91.6667,24.65,98,100,4.72,BD,2023-08-08 01:54:36
197,strathmore,51.0501,-113.3852,25.67,31,86,1.03,CA,2023-08-08 01:54:36
198,papatowai,-46.5619,169.4708,6.58,72,84,6.95,NZ,2023-08-08 01:54:37
199,vung tau,10.346,107.0843,28.59,76,6,6.96,VN,2023-08-08 01:54:37
200,plainfield,40.6168,-74.4173,23.16,93,100,1.34,US,2023-08-08 01:52:53
201,kuta,-8.7233,115.1723,26.97,78,20,5.36,ID,2023-08-08 01:54:38
202,yanykurgan,43.915,67.2481,22.91,58,49,3.11,KZ,2023-08-08 01:54:36
203,klaksvik,62.2266,-6.589,8.51,74,82,5.99,FO,2023-08-08 01:54:39
204,taulaga,-11.0553,-171.0883,27.87,73,100,6.22,AS,2023-08-08 01:54:39
205,nikolayevsk-on-amure,53.1406,140.73,29.23,29,93,2.81,RU,2023-08-08 01:54:40
206,tadine,-21.55,167.8833,20.71,71,38,6.03,NC,2023-08-08 01:54:40
207,labrador city,52.9463,-66.9114,14.95,88,75,1.54,CA,2023-08-08 01:54:41
208,arraial do cabo,-22.9661,-42.0278,21.64,76,0,4.63,BR,2023-08-08 01:54:41
209,woolgoolga,-30.1106,153.2007,17.93,65,70,4.93,AU,2023-08-08 01:54:42
210,san andres,12.5847,-81.7006,29.01,79,40,4.63,CO,2023-08-08 01:54:42
211,huilong,31.8111,121.655,28.58,77,42,4.19,CN,2023-08-08 01:54:43
212,ceeldheer,3.8488,47.1806,23.72,84,33,7.29,SO,2023-08-08 01:54:43
213,menominee,45.1078,-87.6143,22.25,73,0,2.06,US,2023-08-08 01:54:43
214,ogden,41.223,-111.9738,27.97,31,0,1.34,US,2023-08-08 01:54:44
215,tashtyp,52.7939,89.8983,17.68,72,88,0.75,RU,2023-08-08 01:50:20
216,lubang,13.8584,120.124,28.46,81,53,8.48,PH,2023-08-08 01:54:45
217,brisas de zicatela,15.8369,-97.0419,29.29,65,75,0.0,MX,2023-08-08 01:54:45
218,west island,-12.1568,96.8225,26.99,78,40,4.63,CC,2023-08-08 01:54:46
219,atherton,53.5237,-2.4935,14.01,85,34,2.41,GB,2023-08-08 01:54:46
220,guankou,28.15,113.6333,30.89,65,36,0.86,CN,2023-08-08 01:52:33
221,sarmasu,46.75,24.1667,13.64,82,69,3.26,RO,2023-08-08 01:54:47
222,al muwayh,22.4333,41.7583,24.69,21,6,0.43,SA,2023-08-08 01:54:48
223,fort-shevchenko,44.5086,50.263,27.56,60,0,3.24,KZ,2023-08-08 01:54:48
224,jamestown,42.097,-79.2353,19.45,97,100,4.12,US,2023-08-08 01:54:49
225,saint-augustin-de-desmaures,46.7406,-71.4513,17.84,90,100,6.69,CA,2023-08-08 01:54:49
226,necochea,-38.5473,-58.7368,3.11,80,11,3.83,AR,2023-08-08 01:54:50
227,guiuan,11.0333,125.7247,28.85,74,97,5.82,PH,2023-08-08 01:54:50
228,porto novo,6.4965,2.6036,25.9,87,60,4.06,BJ,2023-08-08 01:53:56
229,upper grand lagoon,30.1633,-85.7408,30.05,82,0,3.6,US,2023-08-08 01:54:51
230,mirny,62.5353,113.9611,24.02,43,95,4.02,RU,2023-08-08 01:54:51
231,crane,31.3974,-102.3501,34.46,25,0,8.75,US,2023-08-08 01:54:52
232,port saint john's,-31.6229,29.5448,16.6,85,0,3.0,ZA,2023-08-08 01:54:53
233,port augusta,-32.5,137.7667,17.12,34,0,2.4,AU,2023-08-08 01:54:53
234,el calafate,-50.3408,-72.2768,-0.71,62,100,0.83,AR,2023-08-08 01:54:54
235,guinticgan,11.5641,123.1236,29.43,71,8,3.09,PH,2023-08-08 01:54:55
236,podporozh'ye,60.9112,34.1706,21.07,77,0,4.55,RU,2023-08-08 01:54:56
237,vorgashor,67.5833,63.95,12.6,82,99,4.91,RU,2023-08-08 01:54:56
238,yaren,-0.5472,166.916,28.49,70,26,2.28,NR,2023-08-08 01:54:57
239,itaituba,-4.2761,-55.9836,28.76,45,100,0.96,BR,2023-08-08 01:52:02
240,saint-hilaire-de-talmont,46.47,-1.6036,14.01,76,42,2.34,FR,2023-08-08 01:54:58
241,tiksi,71.6872,128.8694,10.36,54,32,2.38,RU,2023-08-08 01:54:58
242,gizo,-8.103,156.8419,25.7,88,100,9.89,SB,2023-08-08 01:54:59
243,kingston,17.997,-76.7936,30.53,77,20,6.69,JM,2023-08-08 01:54:59
244,kone,-21.0595,164.8658,23.02,57,100,6.02,NC,2023-08-08 01:55:00
245,aksay,47.26,39.87,20.12,41,0,2.64,RU,2023-08-08 01:55:01
246,saint-philippe,-21.3585,55.7679,20.77,73,47,5.32,RE,2023-08-08 01:55:01
247,muynoq,43.7683,59.0214,25.4,58,0,3.47,UZ,2023-08-08 01:55:02
248,weihai,37.5017,122.1136,26.16,80,100,4.71,CN,2023-08-08 01:55:02
249,kavieng,-2.5744,150.7967,28.48,68,88,5.62,PG,2023-08-08 01:55:03
250,barakani,-12.1356,44.4317,24.03,74,9,5.31,KM,2023-08-08 01:55:03
251,san luis de la loma,17.2706,-100.8939,27.92,82,7,3.2,MX,2023-08-08 01:55:04
252,presidencia de la plaza,-27.0015,-59.8424,18.77,59,100,3.77,AR,2023-08-08 01:55:04
253,chililabombwe,-12.3648,27.8229,13.85,65,1,3.21,ZM,2023-08-08 01:55:05
254,smithers,54.7804,-127.1743,19.18,52,100,6.69,CA,2023-08-08 01:55:05
255,susuman,62.7833,148.1667,11.19,38,78,4.86,RU,2023-08-08 01:55:06
256,mitu,1.1983,-70.1733,23.52,92,100,0.35,CO,2023-08-08 01:55:06
257,palikir - national government center,6.9248,158.1611,29.41,79,100,3.09,FM,2023-08-08 01:55:07
258,poyang,28.9924,116.6675,31.15,71,87,2.41,CN,2023-08-08 01:55:07
259,port isabel,26.0734,-97.2086,32.05,76,0,8.75,US,2023-08-08 01:55:08
260,shenkursk,62.1091,42.896,13.15,86,0,2.47,RU,2023-08-08 01:55:08
261,najera,42.4244,-2.734,14.11,72,0,0.79,ES,2023-08-08 01:55:09
262,barcelos,41.5388,-8.6151,28.08,37,0,2.7,PT,2023-08-08 01:55:09
263,ituango,7.1712,-75.764,17.66,98,100,0.18,CO,2023-08-08 01:55:10
264,gaigeturi,33.4644,126.3183,29.03,79,75,5.14,KR,2023-08-08 01:55:10
265,namtsy,62.7161,129.6658,21.95,26,26,2.44,RU,2023-08-08 01:55:11
266,rongelap,11.1635,166.8941,28.65,76,100,7.85,MH,2023-08-08 01:55:12
267,podujeva,42.9106,21.1931,13.55,98,50,2.15,XK,2023-08-08 01:55:12
268,dhidhdhoo,6.8833,73.1,27.97,74,35,6.87,MV,2023-08-08 01:55:13
269,ceska skalice,50.3947,16.0428,13.39,95,50,4.04,CZ,2023-08-08 01:55:13
270,constantia,44.1833,28.65,19.38,59,2,5.11,RO,2023-08-08 01:55:14
271,oranjemund,-28.55,16.4333,12.06,97,35,3.31,NA,2023-08-08 01:55:15
272,wladyslawowo,54.7909,18.4009,14.15,81,100,13.96,PL,2023-08-08 01:55:15
273,port elizabeth,-33.918,25.5701,12.16,87,20,3.09,ZA,2023-08-08 01:55:16
274,colonia,50.9333,6.95,14.42,79,0,2.06,DE,2023-08-08 01:55:16
275,shanhecun,44.7,127.2,23.37,78,61,0.79,CN,2023-08-08 01:55:17
276,pimentel,-6.8367,-79.9342,22.16,73,0,3.09,PE,2023-08-08 01:55:18
277,usinsk,65.9939,57.5281,10.79,79,20,4.97,RU,2023-08-08 01:55:18
278,al quwayrah,29.8004,35.3116,26.0,44,0,1.31,JO,2023-08-08 01:55:19
279,mandalgovi,45.7625,106.2708,21.54,53,0,4.28,MN,2023-08-08 01:55:19
280,talnakh,69.4865,88.3972,19.56,54,100,1.79,RU,2023-08-08 01:55:20
281,nampula,-15.1165,39.2666,17.97,94,75,3.13,MZ,2023-08-08 01:55:20
282,lafia,8.4833,8.5167,22.09,98,97,1.56,NG,2023-08-08 01:55:21
283,qaqortoq,60.7167,-46.0333,5.0,87,5,1.06,GL,2023-08-08 01:55:21
284,port alfred,-33.5906,26.891,15.97,87,9,3.73,ZA,2023-08-08 01:55:22
285,kokstad,-30.5472,29.4241,8.71,50,0,2.18,ZA,2023-08-08 01:55:22
286,sydney,-33.8679,151.2073,19.31,75,40,2.06,AU,2023-08-08 01:50:53
287,nadi,-17.8,177.4167,27.0,74,20,5.66,FJ,2023-08-08 01:55:23
288,college,64.8569,-147.8028,22.89,59,75,2.06,US,2023-08-08 01:55:24
289,afaahiti,-17.75,-149.2833,27.93,79,81,5.45,PF,2023-08-08 01:55:24
290,ghat,24.9647,10.1728,32.06,12,0,1.08,LY,2023-08-08 01:55:25
291,ashgabat,37.95,58.3833,28.92,28,20,3.09,TM,2023-08-08 01:50:32
292,yelizovo,53.1873,158.3805,22.08,40,20,2.0,RU,2023-08-08 01:54:25
293,west bay,19.3667,-81.4167,30.04,85,20,1.79,KY,2023-08-08 01:55:26
294,uturoa,-16.7333,-151.4333,25.9,72,73,2.7,PF,2023-08-08 01:55:26
295,winnemucca,40.973,-117.7357,31.03,16,0,0.0,US,2023-08-08 01:55:27
296,arroyo de la encomienda,41.6096,-4.7969,20.62,54,0,3.6,ES,2023-08-08 01:55:27
297,pipri,19.8,75.5333,23.16,85,100,3.86,IN,2023-08-08 01:55:28
298,rurrenabaque,-14.4413,-67.5278,26.54,57,89,1.08,BO,2023-08-08 01:55:29
299,osby,56.3816,13.9936,12.25,91,100,8.91,SE,2023-08-08 01:55:29
300,klingenberg am main,49.7842,9.1861,13.51,86,100,2.12,DE,2023-08-08 01:55:30
301,sibenik,43.7272,15.9058,19.81,63,0,3.93,HR,2023-08-08 01:55:30
302,tofol,5.3248,163.0078,30.88,70,75,4.63,FM,2023-08-08 01:55:31
303,kalymnos,36.95,26.9833,24.74,83,0,4.12,GR,2023-08-08 01:55:23
304,emirgazi,37.9022,33.8372,22.67,39,0,0.71,TR,2023-08-08 01:55:32
305,paola,39.3599,16.0396,19.62,78,29,1.65,IT,2023-08-08 01:55:32
306,namibe,-15.1961,12.1522,17.59,86,0,0.88,AO,2023-08-08 01:55:33
307,la paz,-16.5,-68.15,6.99,52,20,4.12,BO,2023-08-08 01:53:14
308,port lincoln,-34.7333,135.8667,14.94,46,0,4.02,AU,2023-08-08 01:55:34
309,san ignacio de velasco,-16.3667,-60.95,27.07,47,98,2.85,BO,2023-08-08 01:55:34
310,madalena,41.2162,-8.3345,27.32,51,0,2.21,PT,2023-08-08 01:55:34
311,hamilton,39.1834,-84.5333,22.07,81,23,2.24,US,2023-08-08 01:51:12
312,dampit,-8.2116,112.7493,27.11,42,10,1.8,ID,2023-08-08 01:55:35
313,tonga,-20.0,-175.0,23.55,91,46,6.88,TO,2023-08-08 01:55:36
314,deyang,31.1302,104.382,28.49,77,3,0.9,CN,2023-08-08 01:55:37
315,ancud,-41.8697,-73.8203,8.91,85,100,3.36,CL,2023-08-08 01:55:37
316,kon tum,14.35,108.0,26.37,76,89,3.74,VN,2023-08-08 01:55:37
317,cabo san lucas,22.8909,-109.9124,33.67,68,40,8.75,MX,2023-08-08 01:55:38
318,portland,45.5234,-122.6762,28.62,51,0,4.12,US,2023-08-08 01:52:17
319,cururupu,-1.8283,-44.8683,24.75,90,45,2.16,BR,2023-08-08 01:55:40
320,mutuali,-14.8706,37.0044,17.13,82,56,0.95,MZ,2023-08-08 01:55:40
321,pavlikeni,43.2428,25.3219,16.57,88,100,2.81,BG,2023-08-08 01:55:41
322,jalqani,12.4486,34.2186,21.45,96,100,5.43,SD,2023-08-08 01:55:42
323,masterton,-40.9597,175.6575,6.12,97,99,1.73,NZ,2023-08-08 01:55:42
324,cooma,-36.2333,149.1333,13.4,46,4,0.24,AU,2023-08-08 01:55:42
325,moree,-29.4667,149.85,19.8,43,1,1.67,AU,2023-08-08 01:55:43
326,nogliki,51.8333,143.1667,24.25,43,24,5.01,RU,2023-08-08 01:55:44
327,hadibu,12.65,54.0333,25.54,81,40,9.88,YE,2023-08-08 01:55:45
328,broome,42.2506,-75.833,21.59,94,20,3.6,US,2023-08-08 01:55:45
329,ribeira brava,32.65,-17.0667,23.89,79,21,3.21,PT,2023-08-08 01:55:46
330,colonia menno,-22.3667,-59.8167,25.73,52,1,5.5,PY,2023-08-08 01:55:47
331,bovalino,38.149,16.174,23.94,78,0,5.39,IT,2023-08-08 01:55:47
332,north battleford,52.7834,-108.2847,22.05,53,20,4.12,CA,2023-08-08 01:55:48
333,lebu,-37.6167,-73.65,9.74,82,100,1.41,CL,2023-08-08 01:55:48
334,nizhnyaya poyma,56.1622,97.1933,19.58,65,97,2.08,RU,2023-08-08 01:55:49
335,lazaro cardenas,17.9583,-102.2,27.85,76,0,2.64,MX,2023-08-08 01:52:28
336,holualoa,19.6228,-155.9522,28.91,64,0,5.14,US,2023-08-08 01:55:50
337,baise city,23.8997,106.6133,25.73,98,100,0.49,CN,2023-08-08 01:55:50
338,zinjibar,13.1287,45.3807,29.31,76,99,3.15,YE,2023-08-08 01:55:50
339,jiayuguan,39.8167,98.3,28.92,26,72,2.81,CN,2023-08-08 01:54:19
340,blackwater,-23.5833,148.8833,21.5,71,0,3.85,AU,2023-08-08 01:55:51
341,kapa'a,22.0752,-159.319,31.18,76,75,9.26,US,2023-08-08 01:55:52
342,torghay,49.6339,63.4981,23.35,54,0,4.3,KZ,2023-08-08 01:55:52
343,tukrah,32.5341,20.5791,25.1,69,0,4.96,LY,2023-08-08 01:55:53
344,makamba,-4.1348,29.804,17.08,59,95,0.89,BI,2023-08-08 01:55:53
345,llanes,43.4198,-4.7549,18.8,78,0,2.47,ES,2023-08-08 01:55:54
346,saint john,45.2727,-66.0677,17.57,72,75,4.12,CA,2023-08-08 01:55:38
347,kismayo,-0.3582,42.5454,24.01,83,37,7.22,SO,2023-08-08 01:55:54
348,patterson,37.4716,-121.1297,37.1,39,0,3.65,US,2023-08-08 01:55:55
349,menongue,-14.6585,17.691,11.14,56,0,1.78,AO,2023-08-08 01:55:55
350,atar,20.5169,-13.0499,30.12,23,0,1.54,MR,2023-08-08 01:55:56
351,salinas,36.6777,-121.6555,21.66,81,100,6.69,US,2023-08-08 01:55:57
352,asbury,42.5144,-90.7515,24.67,64,0,1.54,US,2023-08-08 01:55:57
353,kaa-khem,51.6833,94.7333,18.34,82,100,0.96,RU,2023-08-08 01:55:57
354,narvik,68.4384,17.4272,19.1,99,100,3.74,NO,2023-08-08 01:55:58
355,castillos,-34.1667,-53.8333,7.57,81,0,3.28,UY,2023-08-08 01:55:58
356,attapeu,14.8,106.8333,28.31,77,87,2.33,LA,2023-08-08 01:55:59
357,mutum biyu,8.6333,10.7667,22.42,99,99,1.69,NG,2023-08-08 01:55:59
358,homer,59.6425,-151.5483,17.24,77,100,4.12,US,2023-08-08 01:52:16
359,nakamura,32.9833,132.9333,26.92,97,95,5.98,JP,2023-08-08 01:56:00
360,praia da vitoria,38.7333,-27.0667,22.14,94,40,1.23,PT,2023-08-08 01:56:01
361,champerico,14.3,-91.9167,29.19,72,88,1.08,GT,2023-08-08 01:56:01
362,rahimah,26.7079,50.0619,31.12,35,4,4.84,SA,2023-08-08 01:56:01
363,battagram,34.6772,73.0233,23.7,63,0,1.47,PK,2023-08-08 01:56:02
364,camalu,30.85,-116.0667,24.24,57,0,1.78,MX,2023-08-08 01:56:03
365,i-n-salah,27.1935,2.4607,33.47,18,0,6.99,DZ,2023-08-08 01:56:03
366,vysokiy,58.35,60.05,15.01,98,100,2.7,RU,2023-08-08 01:56:04
367,shalqar,47.8333,59.6,23.79,57,30,4.16,KZ,2023-08-08 01:56:04
368,el hadjira,32.6134,5.5126,31.12,23,0,2.38,DZ,2023-08-08 01:56:05
369,vylkove,45.4021,29.586,19.81,55,0,2.63,UA,2023-08-08 01:56:05
370,mata-utu,-13.2816,-176.1745,27.77,75,50,3.29,WF,2023-08-08 01:55:21
371,isna,25.2934,32.554,29.01,16,0,2.32,EG,2023-08-08 01:56:06
372,acapulco de juarez,16.8634,-99.8901,30.9,74,40,3.6,MX,2023-08-08 01:53:02
373,nova xavantina,-14.6667,-52.35,24.52,32,0,1.09,BR,2023-08-08 01:56:07
374,dunedin,-45.8742,170.5036,7.11,67,100,9.39,NZ,2023-08-08 01:54:04
375,adelaide,-34.9333,138.6,17.28,53,0,5.66,AU,2023-08-08 01:55:05
376,tommot,58.9564,126.2925,24.34,54,9,3.63,RU,2023-08-08 01:56:08
377,prokhorovka,51.0374,36.7325,16.76,94,0,3.31,RU,2023-08-08 01:56:09
378,hobyo,5.3505,48.5268,24.6,79,60,10.66,SO,2023-08-08 01:56:09
379,sao gabriel da cachoeira,-0.1303,-67.0892,23.48,92,11,0.13,BR,2023-08-08 01:56:10
380,padang,-0.9492,100.3543,27.03,78,19,1.27,ID,2023-08-08 01:56:11
381,agat village,13.3886,144.6585,29.42,85,100,3.09,GU,2023-08-08 01:56:11
382,las palmas,28.4204,-14.0131,22.44,69,100,4.12,ES,2023-08-08 01:56:11
383,hwange,-18.3693,26.5019,16.42,54,14,1.43,ZW,2023-08-08 01:56:12
384,langepas,61.2544,75.2124,17.21,74,99,1.78,RU,2023-08-08 01:56:13
385,atamyrat,37.8357,65.2106,28.93,25,0,1.92,TM,2023-08-08 01:56:13
386,mammoth lakes,37.6485,-118.9721,22.4,36,0,9.77,US,2023-08-08 01:54:16
387,tralee,52.2704,-9.7026,13.63,96,100,1.0,IE,2023-08-08 01:56:14
388,mugia,43.1041,-9.2179,21.06,74,0,8.82,ES,2023-08-08 01:56:15
389,sittwe,20.15,92.9,26.58,90,100,6.67,MM,2023-08-08 01:56:15
390,touros,-5.1989,-35.4608,24.44,84,25,5.72,BR,2023-08-08 01:56:16
391,howrah,22.5892,88.3103,27.0,94,75,2.06,IN,2023-08-08 01:56:16
392,kannad,20.2667,75.1333,22.64,85,98,5.78,IN,2023-08-08 01:55:00
393,sitka,57.0531,-135.33,17.94,68,100,2.57,US,2023-08-08 01:56:17
394,lienz,46.8289,12.769,11.05,88,67,1.74,AT,2023-08-08 01:56:18
395,orchard homes,46.8633,-114.0484,24.4,50,84,1.34,US,2023-08-08 01:56:18
396,tsiombe,-25.3,45.4833,17.8,79,4,1.46,MG,2023-08-08 01:56:19
397,ranot,7.7777,100.3213,28.81,72,100,4.85,TH,2023-08-08 01:56:19
398,villa nueva,14.5269,-90.5875,23.01,73,75,6.17,GT,2023-08-08 01:56:20
399,blessington,53.17,-6.5325,13.18,88,75,2.06,IE,2023-08-08 01:52:06
400,laojunmiao,39.8333,97.7333,26.59,23,94,2.86,CN,2023-08-08 01:56:21
401,nema,57.5067,50.5011,17.3,71,74,2.69,RU,2023-08-08 01:56:21
402,zavodskoy,43.4597,132.2922,19.77,93,75,2.0,RU,2023-08-08 01:56:22
403,bowen,-20.0167,148.2333,22.97,55,3,7.0,AU,2023-08-08 01:56:22
404,bandarbeyla,9.4942,50.8122,25.84,68,53,12.73,SO,2023-08-08 01:56:23
405,olavarria,-36.8927,-60.3225,2.6,73,20,3.47,AR,2023-08-08 01:56:23
406,ar rutbah,33.0381,40.2848,25.91,42,0,5.26,IQ,2023-08-08 01:56:24
407,nagqu,31.5,92.0,9.02,78,100,1.3,CN,2023-08-08 01:54:27
408,thika,-1.0333,37.0693,17.06,87,2,1.21,KE,2023-08-08 01:56:25
409,sinabang,2.4803,96.3801,24.73,90,100,1.63,ID,2023-08-08 01:56:25
410,ornskoldsvik,63.2909,18.7153,22.53,83,20,6.17,SE,2023-08-08 01:56:26
411,jinka,5.65,36.65,18.74,57,88,2.42,ET,2023-08-08 01:56:26
412,biddinghuizen,52.455,5.6931,16.11,87,88,5.05,NL,2023-08-08 01:56:27
413,bamboo flat,11.7,92.7167,29.05,79,75,6.17,IN,2023-08-08 01:56:27
414,zelenoborskiy,66.845,32.3622,8.7,86,6,5.0,RU,2023-08-08 01:56:28
415,antsiranana,-12.2787,49.2917,21.45,76,4,5.6,MG,2023-08-08 01:56:29
416,sarakhs,36.5449,61.1577,26.85,26,32,2.62,IR,2023-08-08 01:56:29
417,miches,18.9836,-69.0476,27.55,87,90,4.49,DO,2023-08-08 01:56:30
418,machico,32.7,-16.7667,23.89,81,40,1.54,PT,2023-08-08 01:56:30
419,general villegas,-35.0328,-63.0125,4.63,55,13,4.2,AR,2023-08-08 01:56:31
420,nuuk,64.1835,-51.7216,4.34,100,20,2.57,GL,2023-08-08 01:56:31
421,zanjan,36.6736,48.4787,19.65,60,40,2.87,IR,2023-08-08 01:56:31
422,katsuura,35.1333,140.3,30.01,77,98,3.16,JP,2023-08-08 01:56:32
423,derazhnya,49.2692,27.4338,11.25,95,83,3.25,UA,2023-08-08 01:56:32
424,xining,36.6167,101.7667,20.26,52,2,0.53,CN,2023-08-08 01:56:33
425,pauini,-7.7136,-66.9764,30.66,41,100,0.36,BR,2023-08-08 01:56:33
426,kamina,-8.7386,24.9906,17.81,45,7,1.94,CD,2023-08-08 01:56:34
427,santarem,-2.4431,-54.7083,26.07,94,0,0.0,BR,2023-08-08 01:56:34
428,tyuratam,45.6507,63.3156,24.87,50,18,2.77,KZ,2023-08-08 01:56:35
429,san isidro,-12.1167,-77.05,20.77,80,100,5.66,PE,2023-08-08 01:56:35
430,port douglas,-16.4833,145.4667,22.45,75,55,8.51,AU,2023-08-08 01:55:30
431,salinopolis,-0.6136,-47.3561,25.88,86,55,3.96,BR,2023-08-08 01:56:36
432,petrozavodsk,61.7849,34.3469,19.71,93,5,4.0,RU,2023-08-08 01:56:37
433,bouarfa,32.53,-1.95,27.27,24,89,2.53,MA,2023-08-08 01:56:38
434,altamont,42.2068,-121.7372,25.5,37,80,2.68,US,2023-08-08 01:56:38
435,oriximina,-1.7656,-55.8661,27.82,54,80,1.01,BR,2023-08-08 01:56:39
436,guerrero negro,27.9769,-114.0611,25.78,77,3,7.1,MX,2023-08-08 01:56:39
437,medicine hat,50.0501,-110.6683,29.24,29,75,3.09,CA,2023-08-08 01:56:40
438,kafr az zayyat,30.8248,30.8181,22.54,86,0,1.34,EG,2023-08-08 01:56:40
439,raja,8.4596,25.678,19.97,96,100,1.6,SS,2023-08-08 01:56:40
440,bumpe,7.8919,-11.9025,22.81,99,100,0.97,SL,2023-08-08 01:56:41
441,sinop,41.7711,34.8709,18.06,75,0,0.98,TR,2023-08-08 01:56:41
442,bor,56.3567,44.0669,14.96,83,0,2.35,RU,2023-08-08 01:56:42
443,lexington,37.9887,-84.4777,21.62,92,15,0.89,US,2023-08-08 01:53:30
444,otofuke,42.9917,143.2003,16.53,97,100,0.48,JP,2023-08-08 01:56:43
445,wittlich,49.9833,6.8833,13.12,87,0,1.54,DE,2023-08-08 01:56:43
446,puerto armuelles,8.2833,-82.8667,27.27,91,100,1.34,PA,2023-08-08 01:56:44
447,zhezqazghan,47.7833,67.7667,18.32,88,75,3.0,KZ,2023-08-08 01:56:44
448,akhmet'a,42.0311,45.2075,24.29,52,0,1.88,GE,2023-08-08 01:56:45
449,parras de la fuente,25.4167,-102.1833,29.04,24,0,7.76,MX,2023-08-08 01:56:45
450,aljezur,37.3191,-8.8033,20.03,97,19,2.82,PT,2023-08-08 01:56:46
451,alo,7.4178,6.7371,22.48,98,95,1.49,NG,2023-08-08 01:56:46
452,mil'kovo,55.6078,37.7956,21.27,68,54,4.79,RU,2023-08-08 01:56:46
453,spring creek,40.7266,-115.5859,26.83,27,100,3.33,US,2023-08-08 01:56:47
454,lucapa,-8.4192,20.7447,19.46,38,15,1.91,AO,2023-08-08 01:56:48
455,mount pearl,47.5166,-52.7813,14.36,91,75,9.26,CA,2023-08-08 01:56:48
456,trinidad,-14.8333,-64.9,26.85,56,71,0.33,BO,2023-08-08 01:55:57
457,sechura,-5.5569,-80.8222,21.93,75,7,5.94,PE,2023-08-08 01:56:49
458,gumdag,39.2061,54.5906,30.49,26,40,1.82,TM,2023-08-08 01:56:50
459,kuraymah,18.55,31.85,31.0,46,94,3.66,SD,2023-08-08 01:56:50
460,fisterra,42.9049,-9.2629,20.97,67,0,6.9,ES,2023-08-08 01:56:51
461,hasaki,35.7333,140.8333,32.38,78,100,3.68,JP,2023-08-08 01:56:51
462,lansing,42.7325,-84.5555,21.16,78,0,2.57,US,2023-08-08 01:56:30
463,tuy hoa,13.0833,109.3,32.84,51,80,5.85,VN,2023-08-08 01:56:52
464,pandan,14.0453,124.1694,31.28,66,26,3.49,PH,2023-08-08 01:56:52
465,salekhard,66.53,66.6019,17.41,81,3,2.26,RU,2023-08-08 01:56:53
466,takayama,36.1333,137.25,30.95,58,100,1.4,JP,2023-08-08 01:56:54
467,tidjikja,18.5564,-11.4271,29.79,26,1,7.42,MR,2023-08-08 01:56:54
468,cajabamba,-7.6167,-78.05,12.71,76,41,2.53,PE,2023-08-08 01:56:55
469,rabigh,22.7986,39.0349,30.25,49,0,3.07,SA,2023-08-08 01:56:55
470,kenai,60.5544,-151.2583,18.05,80,100,4.12,US,2023-08-08 01:56:56
471,hotan,37.0997,79.9269,23.73,47,92,5.54,CN,2023-08-08 01:56:56
472,kobelyaky,49.1489,34.1965,16.89,77,0,2.89,UA,2023-08-08 01:56:57
473,mocajuba,-2.5842,-49.5072,27.02,69,98,1.05,BR,2023-08-08 01:56:57
474,nacozari viejo,30.4,-109.65,21.13,71,62,2.78,MX,2023-08-08 01:56:57
475,polyarnyy,69.1989,33.4478,13.15,74,55,5.4,RU,2023-08-08 01:56:58
476,borzya,50.3833,116.5167,23.75,37,61,4.42,RU,2023-08-08 01:56:58
477,bocaiuva,-17.1078,-43.815,19.84,42,0,0.9,BR,2023-08-08 01:56:59
478,fale old settlement,-9.3852,-171.2468,28.25,69,18,6.1,TK,2023-08-08 01:56:59
479,toliara,-23.35,43.6667,18.95,86,1,1.1,MG,2023-08-08 01:57:00
480,belmonte,-15.8631,-38.8828,22.5,83,30,2.64,BR,2023-08-08 01:57:00
481,banda aceh,5.5577,95.3222,27.29,75,100,5.04,ID,2023-08-08 01:57:01
482,luang prabang,19.8856,102.1347,23.98,94,100,0.0,LA,2023-08-08 01:57:01
483,ad dabbah,18.05,30.95,31.32,50,88,2.78,SD,2023-08-08 01:57:02
484,flying fish cove,-10.4217,105.6791,25.82,83,75,5.66,CX,2023-08-08 01:57:03
485,darnah,32.767,22.6367,25.0,75,0,6.12,LY,2023-08-08 01:57:03
486,daru,-9.0763,143.2092,25.36,76,56,6.69,PG,2023-08-08 01:57:04
487,o barco de valdeorras,42.4164,-6.9901,21.86,52,0,1.57,ES,2023-08-08 01:57:04
488,cole harbour,44.6724,-63.4751,17.32,82,100,0.45,CA,2023-08-08 01:57:05
489,ghanzi,-21.5667,21.7833,11.57,43,0,3.86,BW,2023-08-08 01:57:05
490,kukes,42.0769,20.4219,14.2,97,66,2.46,AL,2023-08-08 01:57:06
491,el granada,37.5027,-122.4694,29.47,83,100,9.26,US,2023-08-08 01:57:06
492,san jose del cabo,23.0589,-109.6977,33.66,61,40,4.12,MX,2023-08-08 01:54:02
493,susangerd,31.5608,48.1831,33.44,16,0,4.28,IR,2023-08-08 01:57:07
494,bac lieu,9.285,105.7244,30.04,65,8,5.97,VN,2023-08-08 01:57:08
495,vuktyl,63.8567,57.3094,13.83,81,49,4.42,RU,2023-08-08 01:57:08
496,recreio,-21.525,-42.4692,19.74,51,2,1.15,BR,2023-08-08 01:57:08
497,santa ana,33.7456,-117.8678,33.29,62,20,6.17,US,2023-08-08 01:48:44
498,zabid,14.1951,43.3152,30.53,61,98,1.27,YE,2023-08-08 01:57:09
499,palopo,-2.9996,120.1921,27.67,65,27,1.85,ID,2023-08-08 01:57:10
500,dan khun thot,15.2085,101.7714,27.92,67,99,7.38,TH,2023-08-08 01:57:10
501,pyt-yakh,60.7499,72.8582,19.72,58,20,2.55,RU,2023-08-08 01:57:11
502,san antonio de pale,-1.4014,5.6325,22.42,83,100,4.94,GQ,2023-08-08 01:57:11
503,mahina,-17.5065,-149.489,28.87,65,40,2.57,PF,2023-08-08 01:57:12
504,la passe,45.5549,-0.8967,14.43,72,23,2.58,FR,2023-08-08 01:57:12
505,port moresby,-9.4431,147.1797,27.68,65,40,6.17,PG,2023-08-08 01:57:13
506,bubaque,11.2833,-15.8333,26.71,83,100,3.27,GW,2023-08-08 01:57:13
507,meadow lake,34.8014,-106.5436,21.52,61,98,1.8,US,2023-08-08 01:57:14
508,jiangyou,31.7667,104.7167,29.16,71,1,0.83,CN,2023-08-08 01:57:14
509,cockburn town,21.4612,-71.1419,28.78,87,16,9.27,TC,2023-08-08 01:57:15
510,sonoma,38.55,-122.9011,34.2,48,0,6.69,US,2023-08-08 01:57:15
511,fuglafjordur,62.244,-6.814,8.26,76,63,4.55,FO,2023-08-08 01:57:16
512,tindouf,27.6711,-8.1474,33.25,29,40,4.12,DZ,2023-08-08 01:57:16
513,tual,-5.6667,132.75,25.54,78,35,9.73,ID,2023-08-08 01:57:16
514,iaciara,-14.0958,-46.6317,22.21,30,1,1.4,BR,2023-08-08 01:57:17
515,nelson bay,-32.7167,152.15,17.78,74,44,2.24,AU,2023-08-08 01:57:17
516,yakakent,41.6325,35.5289,23.23,78,0,0.94,TR,2023-08-08 01:57:18
517,hithadhoo,-0.6,73.0833,27.52,71,52,0.94,MV,2023-08-08 01:57:18
518,kerikeri,-35.2268,173.9474,11.26,92,100,2.8,NZ,2023-08-08 01:57:19
519,greymouth,-42.4667,171.2,8.74,73,75,1.73,NZ,2023-08-08 01:57:19
520,tulnici,45.9167,26.6667,15.12,68,100,1.14,RO,2023-08-08 01:57:20
521,los altos,37.3852,-122.1141,32.45,58,0,7.2,US,2023-08-08 01:57:20
522,coquimbo,-29.9533,-71.3436,13.85,94,75,2.06,CL,2023-08-08 01:50:59
523,ebon,4.582,168.6964,27.19,78,100,4.37,MH,2023-08-08 01:57:21
524,tabas,33.5959,56.9244,32.12,19,38,1.03,IR,2023-08-08 01:57:22
525,fort bragg,35.139,-79.006,23.79,96,100,4.12,US,2023-08-08 01:57:22
526,tobelo,1.7284,128.0095,29.78,62,50,3.79,ID,2023-08-08 01:57:22
527,leh,34.1667,77.5833,15.15,51,8,2.16,IN,2023-08-08 01:57:23
528,bu'aale,1.0833,42.5833,20.84,92,72,2.26,SO,2023-08-08 01:57:23
529,aykhal,66.0,111.5,20.5,38,90,4.79,RU,2023-08-08 01:57:24
530,turpan,42.9333,89.1667,37.64,18,96,0.22,CN,2023-08-08 01:57:24
531,sitangkai,4.6628,119.3928,28.99,74,91,5.51,PH,2023-08-08 01:57:25
532,libenge,3.65,18.6333,20.41,99,95,0.38,CD,2023-08-08 01:57:25
533,piti village,13.4626,144.6933,29.38,85,100,3.09,GU,2023-08-08 01:57:26
534,tynda,55.1667,124.7167,23.61,47,100,1.21,RU,2023-08-08 01:57:26
535,onguday,50.75,86.15,16.3,85,16,0.82,RU,2023-08-08 01:57:27
536,celestun,20.8667,-90.4,28.62,78,25,7.48,MX,2023-08-08 01:57:27
537,juan griego,11.0817,-63.9655,29.07,84,45,5.66,VE,2023-08-08 01:57:28
538,termoli,41.9888,14.9895,16.99,71,0,4.55,IT,2023-08-08 01:57:28
539,veraval,20.9,70.3667,26.77,86,100,8.03,IN,2023-08-08 01:57:29
540,chonchi,-42.6128,-73.8092,9.56,88,100,1.46,CL,2023-08-08 01:57:29
541,pathein,16.7833,94.7333,26.41,87,100,6.25,MM,2023-08-08 01:57:30
542,hinthada,17.6333,95.4667,25.13,93,100,3.11,MM,2023-08-08 01:57:31
543,soanierana ivongo,-16.9167,49.5833,19.41,91,60,1.59,MG,2023-08-08 01:57:31
544,bikenibeu village,1.3673,173.1241,29.98,70,40,3.6,KI,2023-08-08 01:57:32
545,tenenkou,14.4572,-4.9169,27.86,60,81,4.88,ML,2023-08-08 01:57:32
546,korla,41.7597,86.1469,30.26,27,100,12.58,CN,2023-08-08 01:57:33
547,westport,41.1415,-73.3579,25.18,86,100,7.2,US,2023-08-08 01:54:43
548,sainte-maxime,43.3,6.6333,19.44,49,56,2.91,FR,2023-08-08 01:57:34
549,malango,-2.9627,119.9001,24.93,66,28,1.48,ID,2023-08-08 01:57:35
550,mitsamiouli,-11.3847,43.2844,24.71,71,5,2.33,KM,2023-08-08 01:57:35
551,qarshi,38.8667,65.8,24.9,33,0,3.09,UZ,2023-08-08 01:57:36
552,vila franca do campo,37.7167,-25.4333,21.23,87,26,2.03,PT,2023-08-08 01:57:37
553,yeppoon,-23.1333,150.7333,22.88,62,0,5.86,AU,2023-08-08 01:57:37
554,ponnani,10.767,75.9252,24.62,83,100,1.89,IN,2023-08-08 01:57:38
555,tweed heads,-28.1817,153.547,22.34,58,40,5.66,AU,2023-08-08 01:57:38
556,guarapari,-20.6667,-40.4975,22.16,74,0,3.42,BR,2023-08-08 01:57:39
557,kibiti,-7.7218,38.9375,19.22,98,39,1.39,TZ,2023-08-08 01:57:39
558,galax,36.6612,-80.924,21.31,90,0,0.0,US,2023-08-08 01:57:40
559,dame-marie,18.5667,-74.4167,28.04,83,25,1.72,HT,2023-08-08 01:57:40
560,don sak,9.3168,99.6918,28.94,68,99,6.26,TH,2023-08-08 01:57:41
561,piton saint-leu,-21.2196,55.3151,19.06,73,0,9.77,RE,2023-08-08 01:57:41
562,vigan,17.5747,120.3869,29.96,75,95,6.09,PH,2023-08-08 01:57:42
563,chanika,-5.4167,38.0167,16.29,98,62,1.3,TZ,2023-08-08 01:57:42
564,east london,-33.0153,27.9116,16.46,86,5,4.13,ZA,2023-08-08 01:57:43
565,vinaros,40.4703,0.4756,25.14,80,40,4.44,ES,2023-08-08 01:57:43
566,cabedelo,-6.9811,-34.8339,23.37,84,4,5.37,BR,2023-08-08 01:57:21
567,rio gallegos,-51.6226,-69.2181,2.03,80,0,2.57,AR,2023-08-08 01:56:06
568,rouyn-noranda,48.2398,-79.0288,15.05,88,75,3.6,CA,2023-08-08 01:54:30
569,esqueda,30.7167,-109.5833,20.05,81,74,3.01,MX,2023-08-08 01:57:45
570,awjilah,29.1081,21.2869,23.71,73,18,5.49,LY,2023-08-08 01:57:45
571,port blair,11.6667,92.75,29.02,79,75,6.17,IN,2023-08-08 01:57:46
572,dolinsk,47.35,142.8,19.71,64,60,4.02,RU,2023-08-08 01:57:46
573,beloyarskiy,63.7119,66.6722,19.13,63,0,3.29,RU,2023-08-08 01:57:47
574,luena,-11.7833,19.9167,13.19,52,0,2.0,AO,2023-08-08 01:57:47
575,amga,60.8953,131.9608,20.05,32,32,3.53,RU,2023-08-08 01:57:48
