City_ID,City,Lat,Lng,Max Temp,Humidity,Cloudiness,Wind Speed,Country,Date
0,port elizabeth,-33.918,25.5701,14.16,82,0,7.2,ZA,2023-08-08 03:33:31
1,port-aux-francais,-49.35,70.2167,2.87,75,38,15.71,TF,2023-08-08 03:33:31
2,blackmans bay,-43.0167,147.3167,14.18,59,17,1.76,AU,2023-08-08 03:33:32
3,barreiro do jaiba,-15.6167,-43.6,21.43,42,28,0.93,BR,2023-08-08 03:33:32
4,faya-largeau,17.9257,19.1043,29.91,53,45,3.59,TD,2023-08-08 03:33:33
5,iqaluit,63.7506,-68.5145,5.85,93,75,1.54,CA,2023-08-08 03:29:26
6,lisala,2.15,21.5167,20.9,94,100,0.86,CD,2023-08-08 03:33:34
7,adamstown,-25.066,-130.1015,21.16,75,55,5.41,PN,2023-08-08 03:33:34
8,grytviken,-54.2811,-36.5092,-6.79,81,15,4.44,GS,2023-08-08 03:33:35
9,margaret river,-33.95,115.0667,14.55,79,95,10.19,AU,2023-08-08 03:33:35
10,haiku-pauwela,20.9219,-156.3051,28.61,63,20,13.38,US,2023-08-08 03:33:36
11,petropavlovsk-kamchatsky,53.0452,158.6483,23.33,41,0,2.0,RU,2023-08-08 03:33:37
12,vilyuysk,63.7553,121.6247,27.0,32,1,4.26,RU,2023-08-08 03:33:38
13,waitangi,-43.9535,-176.5597,10.46,82,100,0.89,NZ,2023-08-08 03:33:38
14,olonkinbyen,70.9221,-8.7187,4.13,80,100,2.52,SJ,2023-08-08 03:33:39
15,bikin,46.8161,134.26,26.45,44,86,2.01,RU,2023-08-08 03:33:40
16,isafjordur,66.0755,-23.124,10.35,58,81,0.65,IS,2023-08-08 03:33:40
17,edinburgh of the seven seas,-37.0676,-12.3116,14.7,77,84,19.05,SH,2023-08-08 03:33:41
18,talnakh,69.4865,88.3972,19.56,56,100,2.12,RU,2023-08-08 03:33:41
19,wailua homesteads,22.0669,-159.378,29.24,80,40,8.75,US,2023-08-08 03:33:42
20,chibougamau,49.9168,-74.3659,17.79,77,100,3.6,CA,2023-08-08 03:32:20
21,ta`u,-14.2336,-169.5144,27.12,74,89,4.66,AS,2023-08-08 03:33:43
22,eastham,41.8301,-69.9739,22.19,83,40,4.12,US,2023-08-08 03:33:44
23,berezovyy,51.6667,135.7,28.7,26,87,2.64,RU,2023-08-08 03:33:44
24,bethel,41.3712,-73.414,24.17,87,40,2.57,US,2023-08-08 03:29:02
25,elista,46.3078,44.2558,27.29,61,0,5.0,RU,2023-08-08 03:33:47
26,daru,-9.0763,143.2092,24.78,79,65,6.74,PG,2023-08-08 03:33:47
27,keflavik,64.0049,-22.5624,10.95,93,75,1.03,IS,2023-08-08 03:33:48
28,gadzhiyevo,69.2551,33.3362,15.33,67,32,6.5,RU,2023-08-08 03:33:48
29,l'govskiy,51.6307,35.2775,15.66,88,0,2.93,RU,2023-08-08 03:33:49
30,east london,-33.0153,27.9116,12.52,94,0,1.54,ZA,2023-08-08 03:33:49
31,vuktyl,63.8567,57.3094,16.48,71,32,3.56,RU,2023-08-08 03:33:50
32,punta del este,-34.9667,-54.95,8.26,82,0,2.06,UY,2023-08-08 03:32:00
33,dingli,35.8614,14.3822,21.09,83,20,3.6,MT,2023-08-08 03:33:51
34,la passe,45.5549,-0.8967,13.88,72,32,2.24,FR,2023-08-08 03:33:51
35,waingapu,-9.6567,120.2641,28.11,57,8,8.56,ID,2023-08-08 03:33:52
36,avarua,-21.2078,-159.775,23.03,68,40,1.54,CK,2023-08-08 03:34:00
37,bilibino,68.0546,166.4372,10.74,55,78,1.08,RU,2023-08-08 03:34:02
38,singaraja,-8.112,115.0882,28.89,54,36,2.29,ID,2023-08-08 03:34:02
39,kidal,18.4411,1.4078,31.88,39,4,2.73,ML,2023-08-08 03:34:03
40,vilyuchinsk,52.9306,158.4028,24.15,56,4,3.86,RU,2023-08-08 03:34:04
41,saint-philippe,-21.3585,55.7679,20.77,71,41,4.92,RE,2023-08-08 03:34:05
42,olyokminsk,60.3736,120.4264,30.33,33,2,3.7,RU,2023-08-08 03:34:06
43,bluefields,12.0137,-83.7635,25.43,93,100,2.63,NI,2023-08-08 03:34:07
44,punta arenas,-53.15,-70.9167,1.89,66,100,2.89,CL,2023-08-08 03:31:21
45,namdrik,5.5994,168.1028,25.72,90,100,7.91,MH,2023-08-08 03:34:09
46,katsuura,35.1333,140.3,29.34,75,98,3.91,JP,2023-08-08 03:31:18
47,el galpon,-25.3807,-64.6526,13.02,32,67,1.73,AR,2023-08-08 03:34:11
48,vila velha,-20.3297,-40.2925,21.97,92,0,3.6,BR,2023-08-08 03:34:11
49,khovd,48.0056,91.6419,23.23,38,100,3.97,MN,2023-08-08 03:34:12
50,port mathurin,-19.6833,63.4167,22.42,64,34,10.51,MU,2023-08-08 03:34:13
51,kingston,17.997,-76.7936,29.53,77,20,2.57,JM,2023-08-08 03:32:21
52,albany,42.6001,-73.9662,22.55,92,100,4.14,US,2023-08-08 03:29:25
53,novoagansk,61.9449,76.6625,20.34,50,58,3.8,RU,2023-08-08 03:34:14
54,livingstonia,-10.606,34.1063,13.95,78,1,0.88,MW,2023-08-08 03:34:15
55,lebu,-37.6167,-73.65,9.8,78,98,0.89,CL,2023-08-08 03:34:15
56,kismayo,-0.3582,42.5454,24.4,83,43,6.59,SO,2023-08-08 03:34:16
57,petukhovo,55.0692,67.9019,22.7,42,100,2.03,RU,2023-08-08 03:34:16
58,west island,-12.1568,96.8225,26.99,78,75,5.66,CC,2023-08-08 03:34:17
59,buala,-8.145,159.5921,27.19,81,86,2.35,SB,2023-08-08 03:34:18
60,moyynkum,44.2914,72.9469,29.73,29,77,4.52,KZ,2023-08-08 03:34:18
61,hastings,50.8552,0.5729,13.21,45,98,4.78,GB,2023-08-08 03:29:35
62,gulf shores,30.246,-87.7008,30.19,73,0,4.12,US,2023-08-08 03:34:20
63,carnarvon,-24.8667,113.6333,24.08,58,62,2.5,AU,2023-08-08 03:34:20
64,bredasdorp,-34.5322,20.0403,11.34,92,15,2.85,ZA,2023-08-08 03:34:21
65,hermanus,-34.4187,19.2345,12.11,90,66,4.07,ZA,2023-08-08 03:34:22
66,puerto natales,-51.7236,-72.4875,-0.44,86,100,1.01,CL,2023-08-08 03:32:29
67,atafu village,-8.5421,-172.5159,28.37,71,26,6.28,TK,2023-08-08 03:34:23
68,qaqortoq,60.7167,-46.0333,4.86,88,4,1.36,GL,2023-08-08 03:34:23
69,tucurui,-3.7661,-49.6725,24.62,74,19,1.35,BR,2023-08-08 03:34:24
70,margate,51.3813,1.3862,12.39,85,67,1.34,GB,2023-08-08 03:31:44
71,yellowknife,62.456,-114.3525,16.29,59,75,3.09,CA,2023-08-08 03:30:05
72,monywa,22.1167,95.1333,27.42,79,100,4.28,MM,2023-08-08 03:34:26
73,aykhal,66.0,111.5,22.42,34,71,4.96,RU,2023-08-08 03:34:26
74,barguzin,53.6167,109.6167,24.72,45,19,3.08,RU,2023-08-08 03:34:27
75,baise city,23.8997,106.6133,27.23,93,97,1.19,CN,2023-08-08 03:34:28
76,nova vicosa,-17.8919,-39.3719,21.97,85,0,4.12,BR,2023-08-08 03:34:29
77,riosucio,5.4216,-75.7032,15.56,95,100,0.58,CO,2023-08-08 03:34:30
78,hawaiian paradise park,19.5933,-154.9731,27.73,79,75,4.63,US,2023-08-08 03:33:03
79,sinabang,2.4803,96.3801,25.3,86,100,0.9,ID,2023-08-08 03:34:31
80,invercargill,-46.4,168.35,7.79,78,87,5.36,NZ,2023-08-08 03:34:32
81,enewetak,11.3474,162.3373,27.69,79,100,3.9,MH,2023-08-08 03:34:32
82,constantia,44.1833,28.65,20.39,56,18,7.41,RO,2023-08-08 03:34:33
83,ilulissat,69.2167,-51.1,6.01,70,23,0.0,GL,2023-08-08 03:34:33
84,utrik,11.2278,169.8474,28.45,74,58,8.9,MH,2023-08-08 03:34:34
85,jamestown,42.097,-79.2353,18.64,96,100,5.14,US,2023-08-08 03:29:55
86,sekong,-6.3996,106.0252,32.26,52,81,0.12,ID,2023-08-08 03:34:35
87,uturoa,-16.7333,-151.4333,25.92,72,86,2.34,PF,2023-08-08 03:34:35
88,ushuaia,-54.8,-68.3,1.81,87,0,2.06,AR,2023-08-08 03:34:36
89,salalah,17.0151,54.0924,26.05,94,100,4.12,OM,2023-08-08 03:34:36
90,kavieng,-2.5744,150.7967,28.44,69,82,4.77,PG,2023-08-08 03:34:38
91,itaituba,-4.2761,-55.9836,26.53,52,90,0.74,BR,2023-08-08 03:34:38
92,tarauaca,-8.1614,-70.7656,25.55,65,61,1.14,BR,2023-08-08 03:34:39
93,ust-nera,64.5667,143.2,15.87,28,91,1.94,RU,2023-08-08 03:34:39
94,selfoss,63.9331,-20.9971,10.58,88,99,2.01,IS,2023-08-08 03:34:40
95,longyearbyen,78.2186,15.6401,6.91,81,40,5.66,SJ,2023-08-08 03:34:40
96,watampone,-4.5386,120.3279,28.86,59,9,4.99,ID,2023-08-08 03:34:41
97,nova sintra,14.8667,-24.7167,21.95,78,40,6.54,CV,2023-08-08 03:34:42
98,khandyga,62.6667,135.6,22.54,28,78,1.99,RU,2023-08-08 03:34:42
99,vorgashor,67.5833,63.95,13.58,73,96,5.66,RU,2023-08-08 03:34:42
100,ust-kamenogorsk,49.9789,82.6103,20.96,68,100,3.13,KZ,2023-08-08 03:34:43
101,st. john's,47.5649,-52.7093,14.32,91,75,8.75,CA,2023-08-08 03:34:39
102,illintsi,49.1048,29.2177,14.82,76,64,3.08,UA,2023-08-08 03:34:44
103,belousovka,50.1339,82.5239,20.47,68,90,3.0,KZ,2023-08-08 03:34:44
104,fort bragg,35.139,-79.006,23.44,94,75,4.63,US,2023-08-08 03:34:45
105,weno,7.4515,151.8468,26.97,94,100,2.57,FM,2023-08-08 03:34:45
106,taunggyi,20.7833,97.0333,18.27,98,100,1.84,MM,2023-08-08 03:34:46
107,huarmey,-10.0681,-78.1522,19.29,83,47,3.48,PE,2023-08-08 03:34:46
108,papatowai,-46.5619,169.4708,6.15,73,80,6.66,NZ,2023-08-08 03:34:47
109,georgetown,5.4112,100.3354,32.19,75,40,4.12,MY,2023-08-08 03:31:23
110,vernon,50.2581,-119.2691,27.2,44,95,0.0,CA,2023-08-08 03:34:48
111,whitehorse,60.7161,-135.0538,21.68,45,75,5.14,CA,2023-08-08 03:30:19
112,federal,-30.9547,-58.7833,7.73,74,17,4.26,AR,2023-08-08 03:34:49
113,adre,13.4667,22.2,20.84,88,60,1.72,TD,2023-08-08 03:34:49
114,anadyr,64.75,177.4833,12.28,82,75,5.0,RU,2023-08-08 03:34:50
115,namibe,-15.1961,12.1522,17.18,86,0,0.43,AO,2023-08-08 03:34:50
116,nemuro,43.3236,145.575,15.12,99,100,6.17,JP,2023-08-08 03:34:52
117,rabaul,-4.1967,152.1721,27.96,74,68,5.48,PG,2023-08-08 03:34:53
118,ghat,24.9647,10.1728,31.7,12,1,0.84,LY,2023-08-08 03:29:17
119,oranjemund,-28.55,16.4333,11.82,96,34,3.08,NA,2023-08-08 03:34:54
120,puerto baquerizo moreno,-0.9,-89.6,23.76,73,71,4.48,EC,2023-08-08 03:34:54
121,college,64.8569,-147.8028,22.89,64,75,2.06,US,2023-08-08 03:34:55
122,san luis,-33.295,-66.3356,13.12,24,100,5.29,AR,2023-08-08 03:34:55
123,bikenibeu village,1.3673,173.1241,28.98,84,75,1.54,KI,2023-08-08 03:34:56
124,luderitz,-26.6481,15.1594,15.61,61,0,6.61,NA,2023-08-08 03:35:02
125,lerwick,60.1545,-1.1494,8.0,71,80,7.28,GB,2023-08-08 03:35:02
126,arkhangel'sk,64.5401,40.5433,15.44,72,0,4.02,RU,2023-08-08 03:35:03
127,nenjiang,49.1833,125.2167,15.32,95,100,4.36,CN,2023-08-08 03:35:04
128,emerald,-23.5333,148.1667,24.08,31,0,4.97,AU,2023-08-08 03:35:05
129,namie,37.4833,141.0,33.08,75,97,0.45,JP,2023-08-08 03:35:05
130,ishigaki,24.3448,124.1572,31.07,84,75,6.17,JP,2023-08-08 03:35:06
131,pimenta bueno,-11.6725,-61.1936,28.19,39,94,1.7,BR,2023-08-08 03:30:17
132,bubanza,-3.1167,29.4,19.92,64,90,1.14,BI,2023-08-08 03:35:07
133,puerto ayora,-0.7393,-90.3518,24.19,88,100,2.68,EC,2023-08-08 03:35:08
134,conceicao das alagoas,-19.9147,-48.3883,23.88,32,0,2.55,BR,2023-08-08 03:35:09
135,porto novo,6.4965,2.6036,25.9,86,71,3.9,BJ,2023-08-08 03:31:30
136,thompson,55.7435,-97.8558,13.09,82,75,2.57,CA,2023-08-08 03:35:10
137,nouadhibou,20.931,-17.0347,20.99,88,0,4.12,MR,2023-08-08 03:35:11
138,arraial do cabo,-22.9661,-42.0278,21.33,77,1,4.35,BR,2023-08-08 03:35:11
139,usinsk,65.9939,57.5281,13.84,67,51,5.19,RU,2023-08-08 03:35:12
140,magadan,59.5667,150.8,17.52,52,67,0.81,RU,2023-08-08 03:35:12
141,tura,25.5198,90.2201,24.92,95,100,0.93,IN,2023-08-08 03:35:13
142,bamboo flat,11.7,92.7167,30.05,74,75,6.17,IN,2023-08-08 03:35:14
143,kalmunai,7.4167,81.8167,31.22,55,99,1.06,LK,2023-08-08 03:35:15
144,port lincoln,-34.7333,135.8667,16.08,45,0,3.79,AU,2023-08-08 03:35:15
145,shalkar,47.8288,59.6258,26.5,48,29,4.46,KZ,2023-08-08 03:35:16
146,kapuskasing,49.4169,-82.4331,18.0,77,100,2.57,CA,2023-08-08 03:35:06
147,kankan,10.3854,-9.3057,21.53,97,100,1.68,GN,2023-08-08 03:35:17
148,road town,18.4167,-64.6167,29.05,81,69,7.68,VG,2023-08-08 03:35:17
149,nelson bay,-32.7167,152.15,18.38,71,36,2.24,AU,2023-08-08 03:35:18
150,karratha,-20.7377,116.8463,27.81,27,0,6.8,AU,2023-08-08 03:35:19
151,labrador city,52.9463,-66.9114,13.95,88,100,0.0,CA,2023-08-08 03:35:19
152,port alfred,-33.5906,26.891,15.75,85,16,2.43,ZA,2023-08-08 03:35:20
153,sebastopol,44.6,33.5333,21.11,59,0,0.45,UA,2023-08-08 03:33:24
154,tiksi,71.6872,128.8694,10.66,55,41,2.03,RU,2023-08-08 03:35:21
155,kijang,35.2442,129.2139,31.85,73,59,8.33,KR,2023-08-08 03:35:21
156,iskushuban,10.2837,50.23,28.24,50,29,12.71,SO,2023-08-08 03:35:22
157,labuan,5.2767,115.2417,31.2,66,20,1.54,MY,2023-08-08 03:35:22
158,lihue,21.9789,-159.3672,29.58,74,40,8.75,US,2023-08-08 03:35:23
159,arenapolis,-14.4503,-56.8461,25.39,43,48,1.41,BR,2023-08-08 03:35:23
160,preston,53.7667,-2.7167,14.62,92,80,2.17,GB,2023-08-08 03:32:36
161,palpala,-24.2565,-65.2116,14.57,29,100,2.06,AR,2023-08-08 03:35:24
162,al hudaydah,14.7978,42.9545,31.36,72,93,3.86,YE,2023-08-08 03:35:25
163,sitka,57.0531,-135.33,17.94,68,100,4.12,US,2023-08-08 03:35:25
164,kadi,23.3,72.3333,27.92,74,100,5.5,IN,2023-08-08 03:35:26
165,harper,4.375,-7.7169,23.92,91,42,3.15,LR,2023-08-08 03:35:26
166,praia da vitoria,38.7333,-27.0667,21.53,94,75,0.9,PT,2023-08-08 03:32:29
167,berd,40.8815,45.3899,25.18,52,0,0.6,AM,2023-08-08 03:35:28
168,el calafate,-50.3408,-72.2768,-0.77,64,100,1.24,AR,2023-08-08 03:35:29
169,guerrero negro,27.9769,-114.0611,24.33,77,1,5.67,MX,2023-08-08 03:35:29
170,tsiombe,-25.3,45.4833,17.76,75,5,1.46,MG,2023-08-08 03:35:30
171,flying fish cove,-10.4217,105.6791,25.82,83,100,6.17,CX,2023-08-08 03:35:30
172,balkh,36.75,67.0,34.13,17,0,1.82,AF,2023-08-08 03:35:31
173,rawlins,41.7911,-107.2387,17.42,55,0,3.09,US,2023-08-08 03:35:31
174,pariaman,-0.619,100.12,29.03,71,48,2.7,ID,2023-08-08 03:35:32
175,kavaratti,10.5669,72.642,27.89,76,100,8.25,IN,2023-08-08 03:35:32
176,chonchi,-42.6128,-73.8092,8.95,84,100,2.16,CL,2023-08-08 03:35:33
177,pocatello,42.8713,-112.4455,20.95,57,0,3.09,US,2023-08-08 03:31:20
178,nar'yan-mar,67.6713,53.087,11.89,65,89,4.32,RU,2023-08-08 03:35:34
179,bengkulu,-3.8004,102.2655,28.99,69,37,3.49,ID,2023-08-08 03:35:34
180,cabedelo,-6.9811,-34.8339,24.37,86,31,5.32,BR,2023-08-08 03:35:35
181,petatlan,17.5167,-101.2667,26.43,82,2,1.58,MX,2023-08-08 03:35:36
182,lompoc,34.6391,-120.4579,21.08,94,100,0.89,US,2023-08-08 03:35:36
183,wewak,-3.5534,143.6268,28.09,75,15,3.54,PG,2023-08-08 03:35:37
184,shush,32.1942,48.2436,35.73,15,0,1.95,IR,2023-08-08 03:35:37
185,kodiak,57.79,-152.4072,13.73,94,100,3.09,US,2023-08-08 03:35:35
186,riasi,33.0833,74.8333,28.44,87,2,1.25,IN,2023-08-08 03:35:38
187,udachny,66.4167,112.4,21.92,43,95,4.17,RU,2023-08-08 03:35:38
188,kill devil hills,36.0307,-75.676,28.32,83,40,4.63,US,2023-08-08 03:35:39
189,dunedin,-45.8742,170.5036,7.11,64,99,4.92,NZ,2023-08-08 03:35:39
190,ulladulla,-35.35,150.4667,15.15,61,5,3.54,AU,2023-08-08 03:34:09
191,tomatlan,19.9333,-105.25,26.41,83,34,0.77,MX,2023-08-08 03:35:41
192,alofi,-19.0595,-169.9187,24.94,88,75,5.14,NU,2023-08-08 03:35:41
193,geraldton,-28.7667,114.6,22.23,78,6,8.75,AU,2023-08-08 03:35:42
194,san antonio de pale,-1.4014,5.6325,22.55,81,100,4.56,GQ,2023-08-08 03:35:42
195,lampasas,31.2168,-98.2336,32.83,37,1,4.39,US,2023-08-08 03:35:43
196,guiuan,11.0333,125.7247,29.17,72,99,5.1,PH,2023-08-08 03:35:43
197,lent'ekhi,42.7856,42.7261,24.31,58,4,1.92,GE,2023-08-08 03:35:44
198,aasiaat,68.7098,-52.8699,0.11,85,15,1.07,GL,2023-08-08 03:35:44
199,stanley,54.868,-1.6985,9.55,88,0,3.6,GB,2023-08-08 03:31:27
200,zapala,-38.8992,-70.0544,4.88,48,100,1.19,AR,2023-08-08 03:35:45
201,bishkek,42.87,74.59,20.11,28,63,3.02,KG,2023-08-08 03:35:46
202,booneville,34.6582,-88.5667,25.68,73,0,2.26,US,2023-08-08 03:35:46
203,pacific grove,36.6177,-121.9166,16.78,92,100,4.47,US,2023-08-08 03:35:46
204,saipan,15.1355,145.701,31.39,100,75,4.12,MP,2023-08-08 03:35:47
205,qarazhal,48.0078,70.7903,24.76,47,100,2.54,KZ,2023-08-08 03:35:48
206,isla mujeres,21.2311,-86.731,29.03,82,5,4.22,MX,2023-08-08 03:35:48
207,darlowo,54.421,16.4107,14.74,76,100,15.11,PL,2023-08-08 03:35:48
208,mont-tremblant,46.1949,-74.6264,16.77,94,100,1.54,CA,2023-08-08 03:29:18
209,ola,59.5833,151.2833,17.86,49,87,4.08,RU,2023-08-08 03:35:49
210,queenstown,-31.8976,26.8753,11.0,38,2,2.73,ZA,2023-08-08 03:35:50
211,turan,16.0678,108.2208,33.99,49,0,4.12,VN,2023-08-08 03:32:38
212,mokhsogollokh,61.4681,128.9203,23.03,20,15,4.0,RU,2023-08-08 03:35:52
213,fairbanks,64.8378,-147.7164,22.9,65,75,2.06,US,2023-08-08 03:33:31
214,dhuusamarreeb,5.535,46.3861,23.29,72,25,9.55,SO,2023-08-08 03:35:53
215,ribeira grande,38.5167,-28.7,20.99,83,2,2.68,PT,2023-08-08 03:35:53
216,sungai penuh,-2.0833,101.3833,26.92,55,5,1.01,ID,2023-08-08 03:32:52
217,tual,-5.6667,132.75,25.69,77,46,8.58,ID,2023-08-08 03:35:54
218,prince rupert,54.3161,-130.3201,14.05,95,100,18.01,CA,2023-08-08 03:33:50
219,trebinje,42.7119,18.3442,19.2,45,0,12.86,BA,2023-08-08 03:35:55
220,kerikeri,-35.2268,173.9474,11.2,89,100,3.34,NZ,2023-08-08 03:35:56
221,mount isa,-20.7333,139.5,25.87,25,94,4.12,AU,2023-08-08 03:35:56
222,nampula,-15.1165,39.2666,15.44,99,47,1.93,MZ,2023-08-08 03:35:57
223,troy,42.6056,-83.1499,19.19,84,0,1.54,US,2023-08-08 03:35:57
224,la junta,37.985,-103.5438,24.16,55,0,4.63,US,2023-08-08 03:35:58
225,yanam,16.7333,82.2167,31.05,59,99,3.9,IN,2023-08-08 03:35:58
226,valparaiso,-33.0393,-71.6273,15.0,67,100,1.03,CL,2023-08-08 03:32:21
227,afaahiti,-17.75,-149.2833,26.93,79,91,4.88,PF,2023-08-08 03:35:59
228,daund,18.4667,74.6,26.91,65,100,7.29,IN,2023-08-08 03:36:00
229,vrangel',42.7297,133.0839,18.47,86,100,5.42,RU,2023-08-08 03:36:00
230,badger,64.8,-147.5333,22.85,65,75,2.06,US,2023-08-08 03:36:01
231,claveria,18.6074,121.0832,31.55,65,100,5.5,PH,2023-08-08 03:36:01
232,sivagiri,9.3333,77.4333,30.4,52,100,2.41,IN,2023-08-08 03:36:02
233,minas de marcona,-15.2119,-75.1103,12.41,87,23,4.01,PE,2023-08-08 03:36:02
234,angaur state,6.906,134.13,28.46,75,85,8.37,PW,2023-08-08 03:36:03
235,nakamura,32.9833,132.9333,27.28,96,96,6.18,JP,2023-08-08 03:36:03
236,gizo,-8.103,156.8419,25.75,87,100,9.11,SB,2023-08-08 03:36:06
237,atbasar,51.8,68.3333,23.04,36,96,4.83,KZ,2023-08-08 03:36:07
238,tierra blanca,14.5833,-88.5833,20.76,99,96,0.8,HN,2023-08-08 03:36:08
239,tobol'sk,58.2,68.2667,22.73,58,100,2.18,RU,2023-08-08 03:36:08
240,christchurch,-43.5333,172.6333,10.51,54,20,3.09,NZ,2023-08-08 03:26:24
241,moroni,-11.7022,43.2551,22.0,83,20,2.57,KM,2023-08-08 03:36:09
242,chauk,20.8833,94.8167,28.26,75,98,8.59,MM,2023-08-08 03:36:10
243,maceio,-9.6658,-35.7353,21.69,100,75,0.0,BR,2023-08-08 03:33:48
244,qujing,25.4833,103.7833,23.51,69,95,3.17,CN,2023-08-08 03:32:54
245,parkes,-33.1333,148.1833,17.97,43,18,2.21,AU,2023-08-08 03:36:13
246,tuba city,36.135,-111.2399,30.21,28,19,1.79,US,2023-08-08 03:36:14
247,ndibene dahra,15.3338,-15.4766,24.28,77,22,4.91,SN,2023-08-08 03:36:15
248,saldanha,-33.0117,17.9442,13.03,95,47,4.18,ZA,2023-08-08 03:35:05
249,alice springs,-23.7,133.8833,21.75,30,3,5.14,AU,2023-08-08 03:36:16
250,dudinka,69.4058,86.1778,19.79,58,100,4.35,RU,2023-08-08 03:36:17
251,bac lieu,9.285,105.7244,31.35,61,24,5.86,VN,2023-08-08 03:36:18
252,kandyagash,49.4744,57.4233,24.26,55,2,3.9,KZ,2023-08-08 03:36:18
253,dodoma,-6.1722,35.7395,14.72,83,0,1.93,TZ,2023-08-08 03:36:19
254,mugia,43.1041,-9.2179,20.51,71,0,9.23,ES,2023-08-08 03:36:19
255,zhigalovo,54.8097,105.1578,26.06,45,49,2.59,RU,2023-08-08 03:36:20
256,vangaindrano,-23.35,47.6,17.24,93,7,1.19,MG,2023-08-08 03:36:22
257,kupang,-10.1667,123.5833,30.32,48,40,9.77,ID,2023-08-08 03:36:23
258,ghanzi,-21.5667,21.7833,10.53,44,0,3.76,BW,2023-08-08 03:36:24
259,ayang-ni,38.2431,125.78,29.98,67,100,4.15,KP,2023-08-08 03:36:25
260,agat village,13.3886,144.6585,29.86,89,75,3.6,GU,2023-08-08 03:36:26
261,severo-yeniseyskiy,60.3725,93.0408,17.5,59,96,2.99,RU,2023-08-08 03:36:28
262,tofol,5.3248,163.0078,28.13,72,81,2.65,FM,2023-08-08 03:36:29
263,zdvinsk,54.7021,78.661,24.65,44,6,3.53,RU,2023-08-08 03:36:29
264,galliano,29.4422,-90.2992,30.0,74,0,3.09,US,2023-08-08 03:36:30
265,port hedland,-20.3167,118.5667,30.03,21,3,6.17,AU,2023-08-08 03:36:30
266,andovoranto,-18.95,49.1,19.5,87,90,1.1,MG,2023-08-08 03:36:32
267,tazovsky,67.4667,78.7,17.23,63,5,1.8,RU,2023-08-08 03:36:32
268,mana,5.6592,-53.7767,25.56,88,99,3.38,GF,2023-08-08 03:36:33
269,ibaiti,-23.8486,-50.1878,16.2,70,8,2.58,BR,2023-08-08 03:36:34
270,kudahuvadhoo,2.6708,72.8944,28.32,71,80,3.45,MV,2023-08-08 03:36:34
271,carrigaline,51.8117,-8.3986,15.86,94,100,1.03,IE,2023-08-08 03:36:35
272,auki,-8.7676,160.7034,26.69,87,92,2.76,SB,2023-08-08 03:36:35
273,ullal,12.8,74.85,26.53,89,100,0.0,IN,2023-08-08 03:36:36
274,san sebastian de la gomera,28.0916,-17.1133,22.99,78,0,1.03,ES,2023-08-08 03:36:36
275,touros,-5.1989,-35.4608,23.49,89,34,4.95,BR,2023-08-08 03:36:37
276,taroa,8.7058,171.2275,28.15,78,98,7.22,MH,2023-08-08 03:36:37
277,esmeraldas,-19.7625,-44.3139,17.48,39,0,1.12,BR,2023-08-08 03:36:38
278,choyr,46.3611,108.3611,22.12,53,0,2.25,MN,2023-08-08 03:36:39
279,midvagur,62.0511,-7.1939,8.46,81,20,3.6,FO,2023-08-08 03:36:40
280,newman,37.3138,-121.0208,33.99,45,0,3.74,US,2023-08-08 03:36:41
281,ketchikan,55.3422,-131.6461,15.26,94,100,11.32,US,2023-08-08 03:36:41
282,holualoa,19.6228,-155.9522,28.26,64,0,5.66,US,2023-08-08 03:36:42
283,hasaki,35.7333,140.8333,34.22,78,100,4.58,JP,2023-08-08 03:36:42
284,rio grande,-32.035,-52.0986,10.53,58,48,5.46,BR,2023-08-08 03:36:43
285,crane,31.3974,-102.3501,32.71,29,0,7.91,US,2023-08-08 03:36:43
286,miquelon,47.0975,-56.3814,16.0,78,20,7.32,PM,2023-08-08 03:36:44
287,guiglo,6.5456,-7.4966,21.67,100,96,0.71,CI,2023-08-08 03:36:45
288,happy valley-goose bay,53.3168,-60.3315,15.17,82,100,2.06,CA,2023-08-08 03:36:45
289,ulsan,35.5372,129.3167,29.72,74,92,5.96,KR,2023-08-08 03:33:38
290,hamilton,39.1834,-84.5333,21.11,86,28,0.89,US,2023-08-08 03:34:11
291,pathein,16.7833,94.7333,27.18,85,100,7.14,MM,2023-08-08 03:36:47
292,takoradi,4.8845,-1.7554,24.05,89,63,3.99,GH,2023-08-08 03:36:47
293,antofagasta,-23.65,-70.4,17.6,84,100,2.64,CL,2023-08-08 03:35:44
294,bonito,-21.1211,-56.4819,26.93,36,87,0.73,BR,2023-08-08 03:36:48
295,jwaneng,-24.6004,24.7303,8.28,32,0,2.86,BW,2023-08-08 03:36:49
296,ashburton,-37.8626,145.0794,16.07,70,4,0.45,AU,2023-08-08 03:36:49
297,mao,39.8885,4.2658,19.31,82,0,2.06,ES,2023-08-08 03:36:50
298,weisswasser,51.5167,14.6333,13.5,85,5,5.71,DE,2023-08-08 03:36:51
299,klyuchi,52.2667,79.1667,24.79,31,0,2.47,RU,2023-08-08 03:36:52
300,seven pagodas,12.6264,80.1722,31.14,58,100,4.32,IN,2023-08-08 03:36:52
301,horta,38.5333,-28.6333,20.57,83,5,2.68,PT,2023-08-08 03:36:53
302,bayanaul,50.7889,75.6956,21.6,38,26,5.0,KZ,2023-08-08 03:36:53
303,cidreira,-30.1811,-50.2056,15.55,66,61,4.5,BR,2023-08-08 03:36:54
304,saudarkrokur,65.7461,-19.6394,7.47,85,53,1.11,IS,2023-08-08 03:36:54
305,palmer,42.1584,-72.3287,23.23,81,75,5.14,US,2023-08-08 03:36:55
306,sernur,56.9333,49.1536,20.12,63,0,3.39,RU,2023-08-08 03:36:55
307,natal,-5.795,-35.2094,23.36,100,40,3.6,BR,2023-08-08 03:32:02
308,polyarnyy,69.1989,33.4478,15.32,67,31,6.55,RU,2023-08-08 03:36:57
309,port douglas,-16.4833,145.4667,22.89,67,61,8.28,AU,2023-08-08 03:36:57
310,taganrog,47.2362,38.8969,24.76,45,0,2.19,RU,2023-08-08 03:36:58
311,ulsteinvik,62.3432,5.8487,13.75,93,100,5.36,NO,2023-08-08 03:36:58
312,puerto aysen,-45.4,-72.7,3.02,93,99,1.15,CL,2023-08-08 03:36:59
313,fale old settlement,-9.3852,-171.2468,28.27,67,26,6.13,TK,2023-08-08 03:36:59
314,marsh harbour,26.5412,-77.0636,29.76,78,15,4.87,BS,2023-08-08 03:35:11
315,jining,35.405,116.5814,29.49,62,100,1.63,CN,2023-08-08 03:34:52
316,san pedro pochutla,15.7333,-96.4667,25.0,88,1,2.17,MX,2023-08-08 03:37:01
317,sarai naurang,32.8259,70.7814,34.09,44,0,2.22,PK,2023-08-08 03:37:02
318,hamburg,53.55,10.0,12.88,92,40,8.23,DE,2023-08-08 03:37:03
319,grand falls-windsor,48.9332,-55.6649,13.06,87,48,4.03,CA,2023-08-08 03:37:03
320,kolonia town,6.964,158.206,32.0,70,100,2.57,FM,2023-08-08 03:37:04
321,kibale,0.8,31.0667,17.84,64,100,0.82,UG,2023-08-08 03:37:04
322,raduzhnyy,62.0961,77.475,20.24,49,11,3.6,RU,2023-08-08 03:37:05
323,ciudad lazaro cardenas,17.9583,-102.2,26.94,80,0,2.37,MX,2023-08-08 03:37:05
324,arcos de valdevez,41.8735,-8.4262,22.32,41,0,2.48,PT,2023-08-08 03:37:06
325,tympaki,35.0729,24.7685,21.98,81,0,1.34,GR,2023-08-08 03:37:06
326,langxiang,46.95,128.8833,18.05,95,100,0.99,CN,2023-08-08 03:37:07
327,chokwe,-24.5333,32.9833,14.43,95,0,2.16,MZ,2023-08-08 03:37:08
328,pecos,31.4229,-103.4932,37.46,19,0,6.69,US,2023-08-08 03:36:56
329,aksuat,48.7167,83.7,22.8,58,100,1.94,KZ,2023-08-08 03:37:09
330,island harbour,50.724,-1.2758,14.43,87,68,0.89,GB,2023-08-08 03:37:09
331,brookings,44.3114,-96.7984,19.14,84,40,0.0,US,2023-08-08 03:33:08
332,yulinshi,38.2906,109.7494,29.24,39,50,5.09,CN,2023-08-08 03:37:10
333,menongue,-14.6585,17.691,10.17,61,1,1.84,AO,2023-08-08 03:37:11
334,freetown,8.484,-13.2299,23.84,100,75,2.06,SL,2023-08-08 03:37:11
335,harstad,68.799,16.5293,15.9,100,83,5.36,NO,2023-08-08 03:37:12
336,berezovo,63.9381,65.0419,21.29,63,0,6.22,RU,2023-08-08 03:37:12
337,tobelo,1.7284,128.0095,31.16,59,60,4.77,ID,2023-08-08 03:37:13
338,at taj,24.2049,23.2857,26.5,33,4,4.45,LY,2023-08-08 03:37:16
339,buctzotz,21.2,-88.7833,27.98,78,38,3.52,MX,2023-08-08 03:37:16
340,cabo san lucas,22.8909,-109.9124,32.01,67,12,3.58,MX,2023-08-08 03:29:55
341,shizunai-furukawacho,42.3339,142.3669,22.61,93,100,4.48,JP,2023-08-08 03:37:17
342,trincomalee,8.5711,81.2335,30.38,62,87,8.82,LK,2023-08-08 03:37:19
343,zakynthos,37.7914,20.8953,21.47,88,40,0.0,GR,2023-08-08 03:37:21
344,greenville,35.6127,-77.3663,23.09,95,0,6.69,US,2023-08-08 03:33:52
345,wanning,18.8003,110.3967,33.09,55,81,8.08,CN,2023-08-08 03:37:23
346,tocopilla,-22.092,-70.1979,17.51,78,82,2.65,CL,2023-08-08 03:37:23
347,al artawiyah,26.5053,45.3444,31.3,10,0,3.39,SA,2023-08-08 03:37:24
348,dossor,47.5272,52.9811,29.03,33,0,4.13,KZ,2023-08-08 03:37:24
349,plymouth,41.8334,-70.8328,23.42,85,75,2.57,US,2023-08-08 03:33:06
350,bardstown,37.8092,-85.4669,22.1,96,100,1.54,US,2023-08-08 03:33:34
351,remire-montjoly,4.9167,-52.2667,25.02,94,0,0.51,GF,2023-08-08 03:37:26
352,trevelin,-43.0858,-71.4639,0.71,84,100,1.81,AR,2023-08-08 03:37:26
353,sirte,31.2089,16.5887,25.64,69,0,5.82,LY,2023-08-08 03:37:27
354,igarka,67.4667,86.5833,20.41,50,12,3.38,RU,2023-08-08 03:37:28
355,sangin,32.0728,64.8359,32.86,15,0,1.86,AF,2023-08-08 03:37:30
356,fisterra,42.9049,-9.2629,20.42,63,0,6.75,ES,2023-08-08 03:37:31
357,sucre,-19.0333,-65.2627,11.67,68,81,2.87,BO,2023-08-08 03:37:32
358,fortuna,40.5982,-124.1573,17.59,95,100,5.14,US,2023-08-08 03:37:32
359,san marcos de colon,13.4333,-86.8,20.0,84,100,2.01,HN,2023-08-08 03:37:33
360,wietze,52.65,9.8333,14.12,89,75,6.17,DE,2023-08-08 03:37:33
361,yuzhno-kurilsk,44.0306,145.8556,14.6,98,100,4.29,RU,2023-08-08 03:37:34
362,maryborough,-25.5333,152.7,19.33,68,59,4.64,AU,2023-08-08 03:37:34
363,tozkhurmato,34.8905,44.6299,36.81,17,1,3.95,IQ,2023-08-08 03:37:35
364,chernyshevskiy,63.0128,112.4714,24.11,45,100,4.82,RU,2023-08-08 03:37:35
365,richfield,44.8833,-93.283,23.24,58,40,3.09,US,2023-08-08 03:33:17
366,kalanaur,28.8333,76.4,30.91,58,99,6.9,IN,2023-08-08 03:37:36
367,hithadhoo,-0.6,73.0833,27.63,71,62,1.23,MV,2023-08-08 03:37:36
368,la libertad,-2.2333,-80.9,22.46,82,100,4.24,EC,2023-08-08 03:37:37
369,antalaha,-14.9003,50.2788,19.42,87,10,2.68,MG,2023-08-08 03:37:37
370,tolanaro,-25.0319,46.9987,18.04,100,75,5.14,MG,2023-08-08 03:37:38
371,laguna,38.421,-121.4238,32.32,35,0,4.63,US,2023-08-08 03:37:38
372,tazacorte,28.629,-17.9293,21.54,85,0,2.57,ES,2023-08-08 03:37:39
373,luwuk,-0.9516,122.7875,28.72,69,74,3.09,ID,2023-08-08 03:37:39
374,mahanje,-9.9333,35.3333,12.45,81,13,0.82,TZ,2023-08-08 03:37:40
375,coquimbo,-29.9533,-71.3436,13.85,94,100,2.06,CL,2023-08-08 03:32:46
376,kemijarvi,66.7131,27.4306,16.55,83,2,4.66,FI,2023-08-08 03:37:41
377,pinhao,-25.6956,-51.6597,12.9,98,26,1.63,BR,2023-08-08 03:37:41
378,kabo,7.6994,18.629,20.84,98,100,1.36,CF,2023-08-08 03:37:43
379,okhotsk,59.3833,143.3,16.11,50,82,4.08,RU,2023-08-08 03:37:43
380,shizuishan,39.2333,106.7694,31.08,37,6,7.07,CN,2023-08-08 03:33:09
381,bereeda,11.8704,51.0579,31.48,50,34,3.57,SO,2023-08-08 03:37:44
382,cannonvale,-20.2833,148.7,19.66,68,2,7.85,AU,2023-08-08 03:37:45
383,pachino,36.7186,15.0907,22.66,72,0,4.88,IT,2023-08-08 03:37:46
384,kone,-21.0595,164.8658,21.56,65,100,5.79,NC,2023-08-08 03:37:46
385,taoudenni,22.6783,-3.9836,36.08,21,0,4.05,ML,2023-08-08 03:37:47
386,vorkuta,67.5,64.0,13.86,73,95,5.59,RU,2023-08-08 03:37:47
387,broome,42.2506,-75.833,21.21,95,40,3.09,US,2023-08-08 03:37:48
388,shenjiamen,29.9576,122.298,28.28,81,0,5.5,CN,2023-08-08 03:37:48
389,meadow lake,34.8014,-106.5436,21.94,62,66,4.08,US,2023-08-08 03:37:48
390,mata-utu,-13.2816,-176.1745,27.83,76,65,3.23,WF,2023-08-08 03:37:49
391,ji'an,27.1172,114.9793,33.48,60,68,0.35,CN,2023-08-08 03:37:50
392,kununurra,-15.7667,128.7333,29.99,28,8,5.14,AU,2023-08-08 03:34:17
393,portland,45.5234,-122.6762,25.97,57,20,4.63,US,2023-08-08 03:32:47
394,autazes,-3.5797,-59.1306,26.01,52,33,0.85,BR,2023-08-08 03:37:51
395,iskateley,67.6803,53.1512,11.83,65,89,4.32,RU,2023-08-08 03:37:51
396,radhanpur,23.8333,71.6,28.48,72,100,8.47,IN,2023-08-08 03:37:52
397,jizzax,40.1158,67.8422,33.47,19,0,5.51,UZ,2023-08-08 03:37:52
398,lodwar,3.1191,35.5973,24.63,53,10,4.55,KE,2023-08-08 03:37:53
399,loma bonita,8.3833,-80.1667,27.66,88,100,2.72,PA,2023-08-08 03:37:53
400,san isidro,-12.1167,-77.05,20.77,79,100,4.63,PE,2023-08-08 03:37:54
401,naze,28.3667,129.4833,26.51,90,93,12.85,JP,2023-08-08 03:37:54
402,santa rosa,14.3122,121.1114,32.27,72,84,6.88,PH,2023-08-08 03:35:13
403,mount gambier,-37.8333,140.7667,14.56,51,0,2.17,AU,2023-08-08 03:37:55
404,mossel bay,-34.1831,22.146,7.96,77,0,3.26,ZA,2023-08-08 03:37:55
405,parral,26.9333,-105.6667,25.79,23,0,2.43,MX,2023-08-08 03:37:56
406,pingnan,23.5543,110.3976,30.22,74,70,2.13,CN,2023-08-08 03:37:56
407,kristiansund,63.1115,7.732,12.36,100,100,3.09,NO,2023-08-08 03:37:57
408,biguglia,42.6259,9.4332,20.9,63,0,1.79,FR,2023-08-08 03:37:57
409,muynoq,43.7683,59.0214,28.5,45,0,4.57,UZ,2023-08-08 03:33:20
410,solnechnyy,50.7214,136.6319,27.09,28,76,3.16,RU,2023-08-08 03:37:58
411,ugoofaaru,5.6667,73.0,27.97,75,95,5.42,MV,2023-08-08 03:37:59
412,itigi,-5.7,34.4833,14.9,72,0,3.26,TZ,2023-08-08 03:37:59
413,callao,-12.0667,-77.15,21.16,73,100,4.63,PE,2023-08-08 03:38:00
414,rabo de peixe,37.8,-25.5833,20.73,88,20,2.06,PT,2023-08-08 03:38:01
415,itaguai,-22.8522,-43.7753,20.79,73,0,2.57,BR,2023-08-08 03:35:27
416,inongo,-1.95,18.2667,19.57,94,97,2.58,CD,2023-08-08 03:38:03
417,egilsstadir,65.2653,-14.3948,3.95,87,0,1.54,IS,2023-08-08 03:38:03
418,anqing,30.5092,117.0506,32.05,65,54,4.65,CN,2023-08-08 03:37:47
419,jodhpur,26.2867,73.03,29.2,61,99,9.63,IN,2023-08-08 03:38:04
420,chinchilla,-26.75,150.6333,20.59,33,41,3.57,AU,2023-08-08 03:38:05
421,papao,-17.75,-149.55,27.82,78,82,5.15,PF,2023-08-08 03:38:05
422,el bayadh,33.6832,1.0193,23.19,25,0,2.73,DZ,2023-08-08 03:38:06
423,ondangwa,-17.9167,15.95,13.51,33,1,3.92,NA,2023-08-08 03:38:07
424,ancud,-41.8697,-73.8203,8.68,85,87,3.39,CL,2023-08-08 03:38:08
425,thiers,45.8333,3.5,10.18,78,70,1.85,FR,2023-08-08 03:38:09
426,byron bay,-28.65,153.6167,16.51,50,35,5.78,AU,2023-08-08 03:38:09
427,letlhakane,-21.4167,25.5833,11.74,39,11,4.24,BW,2023-08-08 03:38:10
428,alo,7.4178,6.7371,22.25,99,95,1.52,NG,2023-08-08 03:38:10
429,arawa,-6.2132,155.5367,25.89,92,99,2.21,PG,2023-08-08 03:38:10
430,novyy turtkul',41.55,61.0167,26.95,29,9,4.04,UZ,2023-08-08 03:38:11
431,safi,32.1667,-8.8333,20.93,76,40,2.05,MA,2023-08-08 03:38:11
432,phan thiet,10.9333,108.1,31.06,64,52,6.29,VN,2023-08-08 03:38:12
433,homeland park,34.4707,-82.6707,22.38,97,40,4.63,US,2023-08-08 03:38:12
434,sake,-1.5736,29.045,20.34,87,67,0.69,CD,2023-08-08 03:38:13
435,qianjiang,30.4151,112.8859,32.09,70,10,3.39,CN,2023-08-08 03:38:13
436,sakakah,29.9697,40.2064,24.76,26,0,2.88,SA,2023-08-08 03:38:14
437,amelia,42.5523,12.4182,15.31,81,59,1.7,IT,2023-08-08 03:38:14
438,ardakan,32.31,54.0175,30.52,26,15,3.38,IR,2023-08-08 03:38:15
439,kenai,60.5544,-151.2583,17.03,81,100,2.57,US,2023-08-08 03:28:27
440,maych'ew,12.7875,39.5422,14.72,78,58,2.7,ET,2023-08-08 03:38:15
441,motueka,-41.1333,173.0167,7.82,90,76,1.9,NZ,2023-08-08 03:38:16
442,bel ombre,-4.6167,55.4167,24.91,83,40,6.17,SC,2023-08-08 03:38:17
443,east ballina,-28.8667,153.5833,16.56,52,40,5.48,AU,2023-08-08 03:38:17
444,gaoual,11.75,-13.2,23.1,93,76,0.86,GN,2023-08-08 03:38:18
445,eatonton,33.3268,-83.3885,22.91,92,37,1.25,US,2023-08-08 03:38:18
446,muravlenko,63.7898,74.523,21.01,51,75,3.86,RU,2023-08-08 03:38:19
447,ambovombe,-25.1667,46.0833,18.41,79,10,1.52,MG,2023-08-08 03:38:19
448,howrah,22.5892,88.3103,28.0,83,100,4.12,IN,2023-08-08 03:38:20
449,shingu,33.7333,135.9833,27.66,93,100,5.27,JP,2023-08-08 03:38:20
450,dryden,49.7833,-92.7503,16.16,94,0,1.03,CA,2023-08-08 03:38:20
451,posto fiscal rolim de moura,-13.0833,-62.2667,24.85,46,0,0.94,BR,2023-08-08 03:38:21
452,kikwit,-5.041,18.8162,21.95,53,100,0.28,CD,2023-08-08 03:38:21
453,castlegar,49.2998,-117.6689,21.38,75,70,1.48,CA,2023-08-08 03:38:22
454,tralee,52.2704,-9.7026,13.32,97,98,1.24,IE,2023-08-08 03:38:22
455,fallon,39.4735,-118.7774,28.93,23,40,5.66,US,2023-08-08 03:38:23
456,shortandy,51.7006,70.9994,22.89,35,98,5.3,KZ,2023-08-08 03:38:23
457,tromso,69.6496,18.957,12.01,94,75,3.6,NO,2023-08-08 03:34:56
458,northam,51.0333,-4.2167,14.58,97,100,4.65,GB,2023-08-08 03:38:24
459,calgary,51.0501,-114.0853,21.2,49,75,7.2,CA,2023-08-08 03:26:37
460,pyt-yakh,60.7499,72.8582,22.49,49,26,2.51,RU,2023-08-08 03:38:25
461,sabha,27.0377,14.4283,26.78,32,0,5.6,LY,2023-08-08 03:38:25
462,dhromolaxia,34.8755,33.5868,26.52,82,20,3.13,CY,2023-08-08 03:38:26
463,al majaridah,19.1236,41.9111,33.46,24,13,0.85,SA,2023-08-08 03:38:26
464,san julian,21.0167,-102.1667,17.76,70,55,3.01,MX,2023-08-08 03:38:27
465,saint-pierre,-21.3393,55.4781,20.82,68,0,5.66,RE,2023-08-08 03:38:27
466,caribou,46.8606,-68.012,18.24,75,100,3.09,US,2023-08-08 03:38:28
467,merizo village,13.2658,144.6691,29.65,85,53,3.75,GU,2023-08-08 03:38:29
468,yevpatoriya,45.1972,33.3558,22.67,68,0,0.96,UA,2023-08-08 03:38:29
469,viedma,-40.8135,-62.9967,2.6,70,96,5.22,AR,2023-08-08 03:34:42
470,roma,43.2128,-75.4557,22.63,96,100,1.54,US,2023-08-08 03:36:04
471,lazaro cardenas,17.9583,-102.2,26.94,80,0,2.37,MX,2023-08-08 03:36:20
472,taltal,-25.4,-70.4833,16.2,77,98,1.55,CL,2023-08-08 03:30:20
473,lillehammer,61.1146,10.4674,13.5,98,100,2.08,NO,2023-08-08 03:38:31
474,acapulco de juarez,16.8634,-99.8901,29.9,79,75,2.06,MX,2023-08-08 03:33:57
475,sihanoukville,10.6093,103.5296,29.97,79,40,3.6,KH,2023-08-08 03:38:32
476,el bolson,-41.9667,-71.5167,2.85,87,98,2.52,AR,2023-08-08 03:38:33
477,crucecita,-28.95,-58.9833,11.25,61,3,4.21,AR,2023-08-08 03:38:33
478,chisec,15.8167,-90.2833,23.5,94,100,1.5,GT,2023-08-08 03:38:34
479,palapye,-22.546,27.1251,11.2,37,9,2.0,BW,2023-08-08 03:38:35
480,seosan,36.7817,126.4522,31.17,68,67,3.78,KR,2023-08-08 03:38:35
481,aripuana,-9.1667,-60.6333,27.54,46,71,0.53,BR,2023-08-08 03:38:36
482,tuy hoa,13.0833,109.3,35.04,44,89,5.81,VN,2023-08-08 03:38:36
483,maubin,16.7333,95.65,26.38,85,100,3.23,MM,2023-08-08 03:38:36
484,sisimiut,66.9395,-53.6735,6.65,73,66,0.51,GL,2023-08-08 03:38:37
485,kailua-kona,19.6406,-155.9956,30.33,64,0,5.66,US,2023-08-08 03:38:37
486,argo,37.6333,22.7333,24.32,59,0,1.97,GR,2023-08-08 03:38:38
487,rio gallegos,-51.6226,-69.2181,2.03,87,0,0.51,AR,2023-08-08 03:38:39
488,meadow lakes,61.6247,-149.6011,19.48,79,75,2.06,US,2023-08-08 03:38:40
489,kaa-khem,51.6833,94.7333,20.98,68,95,0.62,RU,2023-08-08 03:38:40
490,necochea,-38.5473,-58.7368,2.06,85,9,4.1,AR,2023-08-08 03:38:41
491,barah,13.7,30.3667,25.51,68,34,3.57,SD,2023-08-08 03:38:41
492,ardestan,33.3761,52.3694,29.34,29,86,3.27,IR,2023-08-08 03:38:42
493,ubari,26.5921,12.7805,27.67,32,0,6.62,LY,2023-08-08 03:38:42
494,pocito,-31.6833,-68.5833,12.78,28,40,2.18,AR,2023-08-08 03:38:42
495,domerat,46.3606,2.5343,8.48,94,47,1.82,FR,2023-08-08 03:38:43
496,akrehamn,59.2667,5.1833,11.34,87,100,16.46,NO,2023-08-08 03:38:43
497,tamanrasset,22.785,5.5228,26.95,19,33,2.57,DZ,2023-08-08 03:38:44
498,mashhad,36.297,59.6062,27.08,44,0,3.09,IR,2023-08-08 03:38:44
499,antsiranana,-12.2787,49.2917,22.42,64,40,4.12,MG,2023-08-08 03:38:45
500,biloela,-24.4167,150.5,23.17,35,38,5.57,AU,2023-08-08 03:38:45
501,havre,49.5833,0.3333,15.22,82,75,5.66,FR,2023-08-08 03:38:46
502,shahrisabz,39.0578,66.8342,31.28,20,0,2.06,UZ,2023-08-08 03:38:46
503,mont-dore,-22.2833,166.5833,18.99,76,96,6.19,NC,2023-08-08 03:38:47
504,serafimovskiy,54.4241,53.7964,21.51,60,60,4.1,RU,2023-08-08 03:38:47
505,ziro,27.6333,93.8333,18.41,99,100,0.31,IN,2023-08-08 03:38:48
506,bolu,40.6667,31.5833,18.88,71,0,1.45,TR,2023-08-08 03:38:48
507,port saint john's,-31.6229,29.5448,16.41,81,0,2.75,ZA,2023-08-08 03:38:48
508,surigao,9.7839,125.4889,30.67,64,50,5.98,PH,2023-08-08 03:38:49
509,svendborg,55.0598,10.6068,13.25,67,100,13.65,DK,2023-08-08 03:38:50
510,gereida,11.2811,25.1414,22.46,91,61,4.02,SD,2023-08-08 03:38:50
511,nykoping,58.753,17.0079,15.16,100,75,4.63,SE,2023-08-08 03:38:51
512,dolores,-36.3132,-57.6792,2.06,85,5,2.49,AR,2023-08-08 03:38:51
513,machico,32.7,-16.7667,23.35,79,40,1.54,PT,2023-08-08 03:38:51
514,kapa'a,22.0752,-159.319,29.99,80,40,8.75,US,2023-08-08 03:38:52
515,eregli,37.5133,34.0467,24.98,38,0,1.15,TR,2023-08-08 03:38:52
516,marquette,46.5333,-87.6335,18.2,86,26,0.89,US,2023-08-08 03:38:53
517,praia,14.9215,-23.5087,26.3,73,75,6.17,CV,2023-08-08 03:38:53
518,malango,-2.9627,119.9001,26.34,62,41,2.11,ID,2023-08-08 03:38:54
519,ormara,25.2088,64.6357,27.67,81,95,5.99,PK,2023-08-08 03:38:54
520,halifax,44.6453,-63.5724,16.94,85,100,0.45,CA,2023-08-08 03:38:52
521,dhidhdhoo,6.8833,73.1,28.04,74,68,5.96,MV,2023-08-08 03:38:55
522,soio,-6.1349,12.3689,20.51,92,74,2.74,AO,2023-08-08 03:38:56
523,pudozh,61.8099,36.5345,21.22,78,1,3.75,RU,2023-08-08 03:38:56
524,martuk,50.7475,56.5056,24.46,54,5,1.65,KZ,2023-08-08 03:38:57
525,mala strana,50.0877,14.4045,12.76,87,0,7.2,CZ,2023-08-08 03:38:57
526,huillapima,-28.7253,-65.9787,13.77,30,58,5.37,AR,2023-08-08 03:38:58
527,banjar,-8.19,114.9675,30.18,49,43,1.86,ID,2023-08-08 03:38:58
528,minot,48.2325,-101.2963,21.12,46,0,2.57,US,2023-08-08 03:38:59
529,ratnagiri,16.9833,73.3,27.39,81,93,5.55,IN,2023-08-08 03:39:00
530,tucuma,-0.1833,-50.05,24.46,91,63,2.73,BR,2023-08-08 03:39:01
531,birobidzhan,48.8,132.95,24.33,55,98,2.43,RU,2023-08-08 03:37:07
532,laojunmiao,39.8333,97.7333,29.9,21,96,6.07,CN,2023-08-08 03:39:02
533,konarka,19.9,86.1167,28.22,66,100,5.3,IN,2023-08-08 03:39:02
534,fougamou,-1.2154,10.5838,20.11,90,53,0.99,GA,2023-08-08 03:39:03
535,susuman,62.7833,148.1667,12.29,38,81,4.82,RU,2023-08-08 03:39:03
536,asau,46.4333,26.4,14.6,76,99,1.52,RO,2023-08-08 03:39:04
537,rocha,-34.4833,-54.3333,5.2,89,0,1.6,UY,2023-08-08 03:38:26
538,torghay,49.6339,63.4981,26.86,35,9,4.26,KZ,2023-08-08 03:39:05
539,bossangoa,6.4926,17.4552,20.45,99,100,1.53,CF,2023-08-08 03:39:06
540,beitbridge,-22.2167,30.0,14.24,50,3,3.61,ZW,2023-08-08 03:39:06
